[
  {
    "country": "AT",
    "code": "7000",
    "name": "Kleinhöflein im Burgenland",
    "state": "Burgenland",
    "stateAbbr": "01",
    "lat": 47.8415,
    "lon": 16.5041
  },
  {
    "country": "AT",
    "code": "7000",
    "name": "Eisenstadt",
    "state": "Burgenland",
    "stateAbbr": "01",
    "lat": 47.8457,
    "lon": 16.5233
  },
  {
    "country": "AT",
    "code": "7000",
    "name": "Sankt Georgen am Leithagebirge",
    "state": "Burgenland",
    "stateAbbr": "01",
    "lat": 47.85,
    "lon": 16.55
  },
  {
    "country": "AT",
    "code": "7071",
    "name": "Rust",
    "state": "Burgenland",
    "stateAbbr": "01",
    "lat": 47.8012,
    "lon": 16.6716
  },
  {
    "country": "AT",
    "code": "2443",
    "name": "Loretto",
    "state": "Burgenland",
    "stateAbbr": "01",
    "lat": 47.9156,
    "lon": 16.5179
  },
  {
    "country": "AT",
    "code": "2443",
    "name": "Stotzing",
    "state": "Burgenland",
    "stateAbbr": "01",
    "lat": 47.9,
    "lon": 16.55
  },
  {
    "country": "AT",
    "code": "2443",
    "name": "Leithaprodersdorf",
    "state": "Burgenland",
    "stateAbbr": "01",
    "lat": 47.9335,
    "lon": 16.4791
  },
  {
    "country": "AT",
    "code": "2485",
    "name": "Wimpassing an der Leitha",
    "state": "Burgenland",
    "stateAbbr": "01",
    "lat": 47.9167,
    "lon": 16.4333
  },
  {
    "country": "AT",
    "code": "2491",
    "name": "Neufeld an der Leitha",
    "state": "Burgenland",
    "stateAbbr": "01",
    "lat": 47.8656,
    "lon": 16.3786
  },
  {
    "country": "AT",
    "code": "2491",
    "name": "Steinbrunn / Štikapron",
    "state": "Burgenland",
    "stateAbbr": "01",
    "lat": 47.8333,
    "lon": 16.4167
  },
  {
    "country": "AT",
    "code": "2491",
    "name": "Hornstein / Vorištan",
    "state": "Burgenland",
    "stateAbbr": "01",
    "lat": 47.8805,
    "lon": 16.4445
  },
  {
    "country": "AT",
    "code": "7011",
    "name": "Siegendorf / Cindrof",
    "state": "Burgenland",
    "stateAbbr": "01",
    "lat": 47.781,
    "lon": 16.5423
  },
  {
    "country": "AT",
    "code": "7011",
    "name": "Zagersdorf / Cogrštof",
    "state": "Burgenland",
    "stateAbbr": "01",
    "lat": 47.7647,
    "lon": 16.5138
  },
  {
    "country": "AT",
    "code": "7013",
    "name": "Klingenbach / Klimpuh",
    "state": "Burgenland",
    "stateAbbr": "01",
    "lat": 47.7574,
    "lon": 16.552
  },
  {
    "country": "AT",
    "code": "7033",
    "name": "Zillingtal / Celindof",
    "state": "Burgenland",
    "stateAbbr": "01",
    "lat": 47.8148,
    "lon": 16.4074
  },
  {
    "country": "AT",
    "code": "7034",
    "name": "Zillingtal / Celindof",
    "state": "Burgenland",
    "stateAbbr": "01",
    "lat": 47.7997,
    "lon": 16.3994
  },
  {
    "country": "AT",
    "code": "7035",
    "name": "Zillingtal / Celindof",
    "state": "Burgenland",
    "stateAbbr": "01",
    "lat": 47.8148,
    "lon": 16.4074
  },
  {
    "country": "AT",
    "code": "7035",
    "name": "Steinbrunn / Štikapron",
    "state": "Burgenland",
    "stateAbbr": "01",
    "lat": 47.8333,
    "lon": 16.4167
  },
  {
    "country": "AT",
    "code": "7041",
    "name": "Wulkaprodersdorf / Vulkaprodrštof",
    "state": "Burgenland",
    "stateAbbr": "01",
    "lat": 47.7975,
    "lon": 16.5045
  },
  {
    "country": "AT",
    "code": "7051",
    "name": "Großhöflein",
    "state": "Burgenland",
    "stateAbbr": "01",
    "lat": 47.8359,
    "lon": 16.4804
  },
  {
    "country": "AT",
    "code": "7052",
    "name": "Müllendorf",
    "state": "Burgenland",
    "stateAbbr": "01",
    "lat": 47.8394,
    "lon": 16.4626
  },
  {
    "country": "AT",
    "code": "7053",
    "name": "Hornstein / Vorištan",
    "state": "Burgenland",
    "stateAbbr": "01",
    "lat": 47.8805,
    "lon": 16.4445
  },
  {
    "country": "AT",
    "code": "7061",
    "name": "Trausdorf an der Wulka / Trajštof",
    "state": "Burgenland",
    "stateAbbr": "01",
    "lat": 47.816,
    "lon": 16.5674
  },
  {
    "country": "AT",
    "code": "7062",
    "name": "Sankt Margarethen im Burgenland",
    "state": "Burgenland",
    "stateAbbr": "01",
    "lat": 47.8034,
    "lon": 16.6088
  },
  {
    "country": "AT",
    "code": "7063",
    "name": "Oggau am Neusiedler See",
    "state": "Burgenland",
    "stateAbbr": "01",
    "lat": 47.8333,
    "lon": 16.6667
  },
  {
    "country": "AT",
    "code": "7064",
    "name": "Oslip / Uzlop",
    "state": "Burgenland",
    "stateAbbr": "01",
    "lat": 47.8291,
    "lon": 16.6196
  },
  {
    "country": "AT",
    "code": "7072",
    "name": "Mörbisch am See",
    "state": "Burgenland",
    "stateAbbr": "01",
    "lat": 47.75,
    "lon": 16.6667
  },
  {
    "country": "AT",
    "code": "7081",
    "name": "Schützen am Gebirge",
    "state": "Burgenland",
    "stateAbbr": "01",
    "lat": 47.8523,
    "lon": 16.6233
  },
  {
    "country": "AT",
    "code": "7082",
    "name": "Donnerskirchen",
    "state": "Burgenland",
    "stateAbbr": "01",
    "lat": 47.8942,
    "lon": 16.6463
  },
  {
    "country": "AT",
    "code": "7083",
    "name": "Purbach am Neusiedler See",
    "state": "Burgenland",
    "stateAbbr": "01",
    "lat": 47.9129,
    "lon": 16.6956
  },
  {
    "country": "AT",
    "code": "7091",
    "name": "Breitenbrunn",
    "state": "Burgenland",
    "stateAbbr": "01",
    "lat": 47.9445,
    "lon": 16.7315
  },
  {
    "country": "AT",
    "code": "7521",
    "name": "Eberau",
    "state": "Burgenland",
    "stateAbbr": "01",
    "lat": 47.1076,
    "lon": 16.4604
  },
  {
    "country": "AT",
    "code": "7521",
    "name": "Gaas",
    "state": "Burgenland",
    "stateAbbr": "01",
    "lat": 47.0824,
    "lon": 16.463
  },
  {
    "country": "AT",
    "code": "7521",
    "name": "Unterbildein",
    "state": "Burgenland",
    "stateAbbr": "01",
    "lat": 47.1284,
    "lon": 16.4679
  },
  {
    "country": "AT",
    "code": "7521",
    "name": "Winten",
    "state": "Burgenland",
    "stateAbbr": "01",
    "lat": 47.1171,
    "lon": 16.4445
  },
  {
    "country": "AT",
    "code": "7521",
    "name": "Kulm im Burgenland",
    "state": "Burgenland",
    "stateAbbr": "01",
    "lat": 47.104,
    "lon": 16.4524
  },
  {
    "country": "AT",
    "code": "7521",
    "name": "Oberbildein",
    "state": "Burgenland",
    "stateAbbr": "01",
    "lat": 47.1333,
    "lon": 16.4667
  },
  {
    "country": "AT",
    "code": "7522",
    "name": "Heiligenbrunn",
    "state": "Burgenland",
    "stateAbbr": "01",
    "lat": 47.027,
    "lon": 16.4169
  },
  {
    "country": "AT",
    "code": "7522",
    "name": "Strem",
    "state": "Burgenland",
    "stateAbbr": "01",
    "lat": 47.045,
    "lon": 16.4143
  },
  {
    "country": "AT",
    "code": "7522",
    "name": "Deutsch Ehrensdorf",
    "state": "Burgenland",
    "stateAbbr": "01",
    "lat": 47.0979,
    "lon": 16.4142
  },
  {
    "country": "AT",
    "code": "7522",
    "name": "Hagensdorf im Burgenland",
    "state": "Burgenland",
    "stateAbbr": "01",
    "lat": 47.0145,
    "lon": 16.4554
  },
  {
    "country": "AT",
    "code": "7522",
    "name": "Reinersdorf",
    "state": "Burgenland",
    "stateAbbr": "01",
    "lat": 47.0165,
    "lon": 16.4359
  },
  {
    "country": "AT",
    "code": "7522",
    "name": "Deutsch Bieling",
    "state": "Burgenland",
    "stateAbbr": "01",
    "lat": 47.0167,
    "lon": 16.4333
  },
  {
    "country": "AT",
    "code": "7522",
    "name": "Steinfurt",
    "state": "Burgenland",
    "stateAbbr": "01",
    "lat": 47.0667,
    "lon": 16.4167
  },
  {
    "country": "AT",
    "code": "7522",
    "name": "Luising",
    "state": "Burgenland",
    "stateAbbr": "01",
    "lat": 47.0139,
    "lon": 16.4794
  },
  {
    "country": "AT",
    "code": "7522",
    "name": "Kroatisch Ehrensdorf",
    "state": "Burgenland",
    "stateAbbr": "01",
    "lat": 47.1175,
    "lon": 16.4024
  },
  {
    "country": "AT",
    "code": "7522",
    "name": "Sumetendorf",
    "state": "Burgenland",
    "stateAbbr": "01",
    "lat": 47.0445,
    "lon": 16.3935
  },
  {
    "country": "AT",
    "code": "7533",
    "name": "Ollersdorf im Burgenland",
    "state": "Burgenland",
    "stateAbbr": "01",
    "lat": 47.1833,
    "lon": 16.1667
  },
  {
    "country": "AT",
    "code": "7534",
    "name": "Olbendorf",
    "state": "Burgenland",
    "stateAbbr": "01",
    "lat": 47.1833,
    "lon": 16.2
  },
  {
    "country": "AT",
    "code": "7534",
    "name": "Rauchwart",
    "state": "Burgenland",
    "stateAbbr": "01",
    "lat": 47.1333,
    "lon": 16.2333
  },
  {
    "country": "AT",
    "code": "7535",
    "name": "Sankt Michael im Burgenland",
    "state": "Burgenland",
    "stateAbbr": "01",
    "lat": 47.1333,
    "lon": 16.2667
  },
  {
    "country": "AT",
    "code": "7535",
    "name": "Kroatisch Tschantschendorf",
    "state": "Burgenland",
    "stateAbbr": "01",
    "lat": 47.0974,
    "lon": 16.2864
  },
  {
    "country": "AT",
    "code": "7535",
    "name": "Schallendorf im Burgenland",
    "state": "Burgenland",
    "stateAbbr": "01",
    "lat": 47.1167,
    "lon": 16.25
  },
  {
    "country": "AT",
    "code": "7535",
    "name": "Gamischdorf",
    "state": "Burgenland",
    "stateAbbr": "01",
    "lat": 47.1,
    "lon": 16.25
  },
  {
    "country": "AT",
    "code": "7535",
    "name": "Rauchwart",
    "state": "Burgenland",
    "stateAbbr": "01",
    "lat": 47.1333,
    "lon": 16.2333
  },
  {
    "country": "AT",
    "code": "7535",
    "name": "Punitz",
    "state": "Burgenland",
    "stateAbbr": "01",
    "lat": 47.1167,
    "lon": 16.35
  },
  {
    "country": "AT",
    "code": "7535",
    "name": "Tudersdorf",
    "state": "Burgenland",
    "stateAbbr": "01",
    "lat": 47.1,
    "lon": 16.2833
  },
  {
    "country": "AT",
    "code": "7535",
    "name": "Deutsch Tschantschendorf",
    "state": "Burgenland",
    "stateAbbr": "01",
    "lat": 47.1,
    "lon": 16.2833
  },
  {
    "country": "AT",
    "code": "7536",
    "name": "Güttenbach / Pinkovac",
    "state": "Burgenland",
    "stateAbbr": "01",
    "lat": 47.1667,
    "lon": 16.3
  },
  {
    "country": "AT",
    "code": "7537",
    "name": "Neuberg im Burgenland / Nova Gora",
    "state": "Burgenland",
    "stateAbbr": "01",
    "lat": 47.1783,
    "lon": 16.2538
  },
  {
    "country": "AT",
    "code": "7540",
    "name": "Sankt Nikolaus",
    "state": "Burgenland",
    "stateAbbr": "01",
    "lat": 47.0462,
    "lon": 16.3323
  },
  {
    "country": "AT",
    "code": "7540",
    "name": "Glasing",
    "state": "Burgenland",
    "stateAbbr": "01",
    "lat": 47.0433,
    "lon": 16.3575
  },
  {
    "country": "AT",
    "code": "7540",
    "name": "Großmürbisch",
    "state": "Burgenland",
    "stateAbbr": "01",
    "lat": 47.0164,
    "lon": 16.362
  },
  {
    "country": "AT",
    "code": "7540",
    "name": "Kleinmürbisch",
    "state": "Burgenland",
    "stateAbbr": "01",
    "lat": 47.033,
    "lon": 16.3245
  },
  {
    "country": "AT",
    "code": "7540",
    "name": "Hasendorf im Burgenland",
    "state": "Burgenland",
    "stateAbbr": "01",
    "lat": 47.0833,
    "lon": 16.3
  },
  {
    "country": "AT",
    "code": "7540",
    "name": "Inzenhof",
    "state": "Burgenland",
    "stateAbbr": "01",
    "lat": 47.0167,
    "lon": 16.3167
  },
  {
    "country": "AT",
    "code": "7540",
    "name": "Tschanigraben",
    "state": "Burgenland",
    "stateAbbr": "01",
    "lat": 47.0047,
    "lon": 16.3119
  },
  {
    "country": "AT",
    "code": "7540",
    "name": "Güssing",
    "state": "Burgenland",
    "stateAbbr": "01",
    "lat": 47.0594,
    "lon": 16.3243
  },
  {
    "country": "AT",
    "code": "7540",
    "name": "Punitz",
    "state": "Burgenland",
    "stateAbbr": "01",
    "lat": 47.1167,
    "lon": 16.35
  },
  {
    "country": "AT",
    "code": "7540",
    "name": "Sulz im Burgenland",
    "state": "Burgenland",
    "stateAbbr": "01",
    "lat": 47.0667,
    "lon": 16.2667
  },
  {
    "country": "AT",
    "code": "7540",
    "name": "Krottendorf",
    "state": "Burgenland",
    "stateAbbr": "01",
    "lat": 47.0595,
    "lon": 16.3071
  },
  {
    "country": "AT",
    "code": "7540",
    "name": "Rehgraben",
    "state": "Burgenland",
    "stateAbbr": "01",
    "lat": 47.0833,
    "lon": 16.2333
  },
  {
    "country": "AT",
    "code": "7540",
    "name": "Neustift bei Güssing",
    "state": "Burgenland",
    "stateAbbr": "01",
    "lat": 47.0167,
    "lon": 16.2667
  },
  {
    "country": "AT",
    "code": "7540",
    "name": "Urbersdorf",
    "state": "Burgenland",
    "stateAbbr": "01",
    "lat": 47.0576,
    "lon": 16.3729
  },
  {
    "country": "AT",
    "code": "7540",
    "name": "Tobaj",
    "state": "Burgenland",
    "stateAbbr": "01",
    "lat": 47.0833,
    "lon": 16.3
  },
  {
    "country": "AT",
    "code": "7540",
    "name": "Moschendorf",
    "state": "Burgenland",
    "stateAbbr": "01",
    "lat": 47.0584,
    "lon": 16.4773
  },
  {
    "country": "AT",
    "code": "7542",
    "name": "Gerersdorf bei Güssing",
    "state": "Burgenland",
    "stateAbbr": "01",
    "lat": 47.0667,
    "lon": 16.25
  },
  {
    "country": "AT",
    "code": "7542",
    "name": "Steingraben",
    "state": "Burgenland",
    "stateAbbr": "01",
    "lat": 47.0667,
    "lon": 16.2667
  },
  {
    "country": "AT",
    "code": "7542",
    "name": "Sulz im Burgenland",
    "state": "Burgenland",
    "stateAbbr": "01",
    "lat": 47.0667,
    "lon": 16.2667
  },
  {
    "country": "AT",
    "code": "7543",
    "name": "Neusiedl",
    "state": "Burgenland",
    "stateAbbr": "01",
    "lat": 47.0759,
    "lon": 16.1852
  },
  {
    "country": "AT",
    "code": "7543",
    "name": "Eisenhüttl",
    "state": "Burgenland",
    "stateAbbr": "01",
    "lat": 47.1,
    "lon": 16.2
  },
  {
    "country": "AT",
    "code": "7543",
    "name": "Limbach",
    "state": "Burgenland",
    "stateAbbr": "01",
    "lat": 47.0759,
    "lon": 16.1852
  },
  {
    "country": "AT",
    "code": "7543",
    "name": "Kukmirn",
    "state": "Burgenland",
    "stateAbbr": "01",
    "lat": 47.0754,
    "lon": 16.2103
  },
  {
    "country": "AT",
    "code": "7551",
    "name": "Bocksdorf",
    "state": "Burgenland",
    "stateAbbr": "01",
    "lat": 47.1333,
    "lon": 16.1667
  },
  {
    "country": "AT",
    "code": "7551",
    "name": "Heugraben",
    "state": "Burgenland",
    "stateAbbr": "01",
    "lat": 47.1167,
    "lon": 16.1833
  },
  {
    "country": "AT",
    "code": "7551",
    "name": "Rohr im Burgenland",
    "state": "Burgenland",
    "stateAbbr": "01",
    "lat": 47.1167,
    "lon": 16.1667
  },
  {
    "country": "AT",
    "code": "7551",
    "name": "Stegersbach",
    "state": "Burgenland",
    "stateAbbr": "01",
    "lat": 47.1667,
    "lon": 16.1667
  },
  {
    "country": "AT",
    "code": "7552",
    "name": "Stinatz / Stinjaki",
    "state": "Burgenland",
    "stateAbbr": "01",
    "lat": 47.2,
    "lon": 16.1167
  },
  {
    "country": "AT",
    "code": "8291",
    "name": "Burgauberg",
    "state": "Burgenland",
    "stateAbbr": "01",
    "lat": 47.1579,
    "lon": 16.1252
  },
  {
    "country": "AT",
    "code": "8292",
    "name": "Neudauberg",
    "state": "Burgenland",
    "stateAbbr": "01",
    "lat": 47.1579,
    "lon": 16.1252
  },
  {
    "country": "AT",
    "code": "8292",
    "name": "Hackerberg",
    "state": "Burgenland",
    "stateAbbr": "01",
    "lat": 47.2,
    "lon": 16.1167
  },
  {
    "country": "AT",
    "code": "8293",
    "name": "Wörterberg",
    "state": "Burgenland",
    "stateAbbr": "01",
    "lat": 47.2167,
    "lon": 16.1
  },
  {
    "country": "AT",
    "code": "7561",
    "name": "Heiligenkreuz im Lafnitztal",
    "state": "Burgenland",
    "stateAbbr": "01",
    "lat": 46.9892,
    "lon": 16.2608
  },
  {
    "country": "AT",
    "code": "7561",
    "name": "Poppendorf im Burgenland",
    "state": "Burgenland",
    "stateAbbr": "01",
    "lat": 46.9969,
    "lon": 16.225
  },
  {
    "country": "AT",
    "code": "7562",
    "name": "Zahling",
    "state": "Burgenland",
    "stateAbbr": "01",
    "lat": 47.0333,
    "lon": 16.2
  },
  {
    "country": "AT",
    "code": "7562",
    "name": "Eltendorf",
    "state": "Burgenland",
    "stateAbbr": "01",
    "lat": 47,
    "lon": 16.2
  },
  {
    "country": "AT",
    "code": "7563",
    "name": "Königsdorf",
    "state": "Burgenland",
    "stateAbbr": "01",
    "lat": 47,
    "lon": 16.1667
  },
  {
    "country": "AT",
    "code": "7564",
    "name": "Dobersdorf",
    "state": "Burgenland",
    "stateAbbr": "01",
    "lat": 47.0167,
    "lon": 16.1333
  },
  {
    "country": "AT",
    "code": "7564",
    "name": "Rudersdorf",
    "state": "Burgenland",
    "stateAbbr": "01",
    "lat": 47.05,
    "lon": 16.1167
  },
  {
    "country": "AT",
    "code": "7571",
    "name": "Rudersdorf",
    "state": "Burgenland",
    "stateAbbr": "01",
    "lat": 47.05,
    "lon": 16.1167
  },
  {
    "country": "AT",
    "code": "7572",
    "name": "Rohrbrunn",
    "state": "Burgenland",
    "stateAbbr": "01",
    "lat": 47.1167,
    "lon": 16.1
  },
  {
    "country": "AT",
    "code": "7572",
    "name": "Deutsch Kaltenbrunn",
    "state": "Burgenland",
    "stateAbbr": "01",
    "lat": 47.0879,
    "lon": 16.1079
  },
  {
    "country": "AT",
    "code": "8282",
    "name": "Henndorf im Burgenland",
    "state": "Burgenland",
    "stateAbbr": "01",
    "lat": 46.9579,
    "lon": 16.1402
  },
  {
    "country": "AT",
    "code": "8350",
    "name": "Welten",
    "state": "Burgenland",
    "stateAbbr": "01",
    "lat": 46.9292,
    "lon": 16.0825
  },
  {
    "country": "AT",
    "code": "8380",
    "name": "Jennersdorf",
    "state": "Burgenland",
    "stateAbbr": "01",
    "lat": 46.9385,
    "lon": 16.1416
  },
  {
    "country": "AT",
    "code": "8380",
    "name": "Rax",
    "state": "Burgenland",
    "stateAbbr": "01",
    "lat": 46.9333,
    "lon": 16.1667
  },
  {
    "country": "AT",
    "code": "8380",
    "name": "Henndorf im Burgenland",
    "state": "Burgenland",
    "stateAbbr": "01",
    "lat": 46.9378,
    "lon": 16.1487
  },
  {
    "country": "AT",
    "code": "8380",
    "name": "Neumarkt an der Raab",
    "state": "Burgenland",
    "stateAbbr": "01",
    "lat": 46.9269,
    "lon": 16.1667
  },
  {
    "country": "AT",
    "code": "8380",
    "name": "Grieselstein",
    "state": "Burgenland",
    "stateAbbr": "01",
    "lat": 46.9525,
    "lon": 16.12
  },
  {
    "country": "AT",
    "code": "8382",
    "name": "Krobotek",
    "state": "Burgenland",
    "stateAbbr": "01",
    "lat": 46.9624,
    "lon": 16.1941
  },
  {
    "country": "AT",
    "code": "8382",
    "name": "Deutsch Minihof",
    "state": "Burgenland",
    "stateAbbr": "01",
    "lat": 46.9708,
    "lon": 16.2426
  },
  {
    "country": "AT",
    "code": "8382",
    "name": "Mogersdorf",
    "state": "Burgenland",
    "stateAbbr": "01",
    "lat": 46.9492,
    "lon": 16.2322
  },
  {
    "country": "AT",
    "code": "8382",
    "name": "Maria Bild",
    "state": "Burgenland",
    "stateAbbr": "01",
    "lat": 46.9589,
    "lon": 16.1897
  },
  {
    "country": "AT",
    "code": "8382",
    "name": "Rosendorf",
    "state": "Burgenland",
    "stateAbbr": "01",
    "lat": 46.9797,
    "lon": 16.2103
  },
  {
    "country": "AT",
    "code": "8382",
    "name": "Weichselbaum",
    "state": "Burgenland",
    "stateAbbr": "01",
    "lat": 46.9425,
    "lon": 16.1875
  },
  {
    "country": "AT",
    "code": "8382",
    "name": "Wallendorf",
    "state": "Burgenland",
    "stateAbbr": "01",
    "lat": 46.9719,
    "lon": 16.2333
  },
  {
    "country": "AT",
    "code": "8383",
    "name": "Sankt Martin an der Raab",
    "state": "Burgenland",
    "stateAbbr": "01",
    "lat": 46.9225,
    "lon": 16.1361
  },
  {
    "country": "AT",
    "code": "8383",
    "name": "Gritsch",
    "state": "Burgenland",
    "stateAbbr": "01",
    "lat": 46.9244,
    "lon": 16.1053
  },
  {
    "country": "AT",
    "code": "8383",
    "name": "Oberdrosen",
    "state": "Burgenland",
    "stateAbbr": "01",
    "lat": 46.889,
    "lon": 16.1203
  },
  {
    "country": "AT",
    "code": "8383",
    "name": "Doiber",
    "state": "Burgenland",
    "stateAbbr": "01",
    "lat": 46.9222,
    "lon": 16.1153
  },
  {
    "country": "AT",
    "code": "8383",
    "name": "Welten",
    "state": "Burgenland",
    "stateAbbr": "01",
    "lat": 46.9292,
    "lon": 16.0825
  },
  {
    "country": "AT",
    "code": "8383",
    "name": "Eisenberg an der Raab",
    "state": "Burgenland",
    "stateAbbr": "01",
    "lat": 46.9,
    "lon": 16.1333
  },
  {
    "country": "AT",
    "code": "8384",
    "name": "Minihof-Liebau",
    "state": "Burgenland",
    "stateAbbr": "01",
    "lat": 46.8661,
    "lon": 16.083
  },
  {
    "country": "AT",
    "code": "8384",
    "name": "Tauka",
    "state": "Burgenland",
    "stateAbbr": "01",
    "lat": 46.8647,
    "lon": 16.0789
  },
  {
    "country": "AT",
    "code": "8384",
    "name": "Windisch-Minihof",
    "state": "Burgenland",
    "stateAbbr": "01",
    "lat": 46.8661,
    "lon": 16.083
  },
  {
    "country": "AT",
    "code": "8384",
    "name": "Oberdrosen",
    "state": "Burgenland",
    "stateAbbr": "01",
    "lat": 46.889,
    "lon": 16.1203
  },
  {
    "country": "AT",
    "code": "8384",
    "name": "Bonisdorf",
    "state": "Burgenland",
    "stateAbbr": "01",
    "lat": 46.8444,
    "lon": 16.0497
  },
  {
    "country": "AT",
    "code": "8385",
    "name": "Krottendorf bei Neuhaus am Klausenbach",
    "state": "Burgenland",
    "stateAbbr": "01",
    "lat": 46.85,
    "lon": 16.0167
  },
  {
    "country": "AT",
    "code": "8385",
    "name": "Welten",
    "state": "Burgenland",
    "stateAbbr": "01",
    "lat": 46.9292,
    "lon": 16.0825
  },
  {
    "country": "AT",
    "code": "8385",
    "name": "Mühlgraben",
    "state": "Burgenland",
    "stateAbbr": "01",
    "lat": 46.8897,
    "lon": 16.0408
  },
  {
    "country": "AT",
    "code": "8385",
    "name": "Kalch",
    "state": "Burgenland",
    "stateAbbr": "01",
    "lat": 46.85,
    "lon": 16.0167
  },
  {
    "country": "AT",
    "code": "8385",
    "name": "Bonisdorf",
    "state": "Burgenland",
    "stateAbbr": "01",
    "lat": 46.8444,
    "lon": 16.0497
  },
  {
    "country": "AT",
    "code": "8385",
    "name": "Neuhaus am Klausenbach",
    "state": "Burgenland",
    "stateAbbr": "01",
    "lat": 46.8667,
    "lon": 16.0333
  },
  {
    "country": "AT",
    "code": "7020",
    "name": "Loipersbach im Burgenland",
    "state": "Burgenland",
    "stateAbbr": "01",
    "lat": 47.6966,
    "lon": 16.4792
  },
  {
    "country": "AT",
    "code": "7021",
    "name": "Baumgarten / Pajngrt",
    "state": "Burgenland",
    "stateAbbr": "01",
    "lat": 47.7389,
    "lon": 16.5006
  },
  {
    "country": "AT",
    "code": "7021",
    "name": "Draßburg / Rasporak",
    "state": "Burgenland",
    "stateAbbr": "01",
    "lat": 47.7465,
    "lon": 16.4868
  },
  {
    "country": "AT",
    "code": "7022",
    "name": "Schattendorf",
    "state": "Burgenland",
    "stateAbbr": "01",
    "lat": 47.7097,
    "lon": 16.5098
  },
  {
    "country": "AT",
    "code": "7023",
    "name": "Zemendorf",
    "state": "Burgenland",
    "stateAbbr": "01",
    "lat": 47.7628,
    "lon": 16.4511
  },
  {
    "country": "AT",
    "code": "7023",
    "name": "Pöttelsdorf",
    "state": "Burgenland",
    "stateAbbr": "01",
    "lat": 47.7537,
    "lon": 16.4386
  },
  {
    "country": "AT",
    "code": "7023",
    "name": "Stöttera",
    "state": "Burgenland",
    "stateAbbr": "01",
    "lat": 47.7679,
    "lon": 16.4611
  },
  {
    "country": "AT",
    "code": "7024",
    "name": "Hirm",
    "state": "Burgenland",
    "stateAbbr": "01",
    "lat": 47.7865,
    "lon": 16.4546
  },
  {
    "country": "AT",
    "code": "7031",
    "name": "Krensdorf",
    "state": "Burgenland",
    "stateAbbr": "01",
    "lat": 47.7855,
    "lon": 16.4149
  },
  {
    "country": "AT",
    "code": "7032",
    "name": "Sigleß",
    "state": "Burgenland",
    "stateAbbr": "01",
    "lat": 47.7753,
    "lon": 16.395
  },
  {
    "country": "AT",
    "code": "7033",
    "name": "Pöttsching",
    "state": "Burgenland",
    "stateAbbr": "01",
    "lat": 47.8045,
    "lon": 16.3711
  },
  {
    "country": "AT",
    "code": "7042",
    "name": "Antau / Otava",
    "state": "Burgenland",
    "stateAbbr": "01",
    "lat": 47.7738,
    "lon": 16.4798
  },
  {
    "country": "AT",
    "code": "7201",
    "name": "Neudörfl",
    "state": "Burgenland",
    "stateAbbr": "01",
    "lat": 47.7966,
    "lon": 16.2977
  },
  {
    "country": "AT",
    "code": "7202",
    "name": "Bad Sauerbrunn",
    "state": "Burgenland",
    "stateAbbr": "01",
    "lat": 47.7744,
    "lon": 16.3284
  },
  {
    "country": "AT",
    "code": "7202",
    "name": "Pöttsching",
    "state": "Burgenland",
    "stateAbbr": "01",
    "lat": 47.8045,
    "lon": 16.3711
  },
  {
    "country": "AT",
    "code": "7202",
    "name": "Wiesen",
    "state": "Burgenland",
    "stateAbbr": "01",
    "lat": 47.7378,
    "lon": 16.338
  },
  {
    "country": "AT",
    "code": "7203",
    "name": "Wiesen",
    "state": "Burgenland",
    "stateAbbr": "01",
    "lat": 47.7378,
    "lon": 16.338
  },
  {
    "country": "AT",
    "code": "7210",
    "name": "Mattersburg",
    "state": "Burgenland",
    "stateAbbr": "01",
    "lat": 47.7333,
    "lon": 16.4
  },
  {
    "country": "AT",
    "code": "7210",
    "name": "Walbersdorf",
    "state": "Burgenland",
    "stateAbbr": "01",
    "lat": 47.742,
    "lon": 16.4205
  },
  {
    "country": "AT",
    "code": "7212",
    "name": "Forchtenstein",
    "state": "Burgenland",
    "stateAbbr": "01",
    "lat": 47.7116,
    "lon": 16.3453
  },
  {
    "country": "AT",
    "code": "7221",
    "name": "Marz",
    "state": "Burgenland",
    "stateAbbr": "01",
    "lat": 47.7167,
    "lon": 16.4167
  },
  {
    "country": "AT",
    "code": "7222",
    "name": "Rohrbach bei Mattersburg",
    "state": "Burgenland",
    "stateAbbr": "01",
    "lat": 47.7052,
    "lon": 16.4301
  },
  {
    "country": "AT",
    "code": "7223",
    "name": "Sieggraben",
    "state": "Burgenland",
    "stateAbbr": "01",
    "lat": 47.6513,
    "lon": 16.3799
  },
  {
    "country": "AT",
    "code": "2413",
    "name": "Edelstal",
    "state": "Burgenland",
    "stateAbbr": "01",
    "lat": 48.1,
    "lon": 16.9833
  },
  {
    "country": "AT",
    "code": "2421",
    "name": "Kittsee",
    "state": "Burgenland",
    "stateAbbr": "01",
    "lat": 48.0925,
    "lon": 17.0639
  },
  {
    "country": "AT",
    "code": "2422",
    "name": "Pama / Bijelo Selo",
    "state": "Burgenland",
    "stateAbbr": "01",
    "lat": 48.05,
    "lon": 17.0333
  },
  {
    "country": "AT",
    "code": "2423",
    "name": "Deutsch Jahrndorf",
    "state": "Burgenland",
    "stateAbbr": "01",
    "lat": 48.0167,
    "lon": 17.1
  },
  {
    "country": "AT",
    "code": "2424",
    "name": "Zurndorf",
    "state": "Burgenland",
    "stateAbbr": "01",
    "lat": 47.9831,
    "lon": 17.0031
  },
  {
    "country": "AT",
    "code": "2425",
    "name": "Nickelsdorf",
    "state": "Burgenland",
    "stateAbbr": "01",
    "lat": 47.9406,
    "lon": 17.0694
  },
  {
    "country": "AT",
    "code": "2460",
    "name": "Bruckneudorf",
    "state": "Burgenland",
    "stateAbbr": "01",
    "lat": 48.0167,
    "lon": 16.7833
  },
  {
    "country": "AT",
    "code": "2462",
    "name": "Königshof",
    "state": "Burgenland",
    "stateAbbr": "01",
    "lat": 48.0014,
    "lon": 16.7642
  },
  {
    "country": "AT",
    "code": "2462",
    "name": "Kaisersteinbruch",
    "state": "Burgenland",
    "stateAbbr": "01",
    "lat": 47.9881,
    "lon": 16.7029
  },
  {
    "country": "AT",
    "code": "2471",
    "name": "Parndorf / Pandrof",
    "state": "Burgenland",
    "stateAbbr": "01",
    "lat": 47.9996,
    "lon": 16.8605
  },
  {
    "country": "AT",
    "code": "2473",
    "name": "Potzneusiedl",
    "state": "Burgenland",
    "stateAbbr": "01",
    "lat": 48.045,
    "lon": 16.9477
  },
  {
    "country": "AT",
    "code": "2474",
    "name": "Gattendorf",
    "state": "Burgenland",
    "stateAbbr": "01",
    "lat": 48.0167,
    "lon": 16.9833
  },
  {
    "country": "AT",
    "code": "2475",
    "name": "Neudorf / Novo Selo",
    "state": "Burgenland",
    "stateAbbr": "01",
    "lat": 48.0167,
    "lon": 16.9333
  },
  {
    "country": "AT",
    "code": "7092",
    "name": "Winden am See",
    "state": "Burgenland",
    "stateAbbr": "01",
    "lat": 47.95,
    "lon": 16.75
  },
  {
    "country": "AT",
    "code": "7093",
    "name": "Jois",
    "state": "Burgenland",
    "stateAbbr": "01",
    "lat": 47.9617,
    "lon": 16.796
  },
  {
    "country": "AT",
    "code": "7100",
    "name": "Weiden am See",
    "state": "Burgenland",
    "stateAbbr": "01",
    "lat": 47.9253,
    "lon": 16.869
  },
  {
    "country": "AT",
    "code": "7100",
    "name": "Neusiedl am See",
    "state": "Burgenland",
    "stateAbbr": "01",
    "lat": 47.949,
    "lon": 16.8417
  },
  {
    "country": "AT",
    "code": "7111",
    "name": "Parndorf / Pandrof",
    "state": "Burgenland",
    "stateAbbr": "01",
    "lat": 47.9996,
    "lon": 16.8605
  },
  {
    "country": "AT",
    "code": "7121",
    "name": "Weiden am See",
    "state": "Burgenland",
    "stateAbbr": "01",
    "lat": 47.9253,
    "lon": 16.869
  },
  {
    "country": "AT",
    "code": "7122",
    "name": "Gols",
    "state": "Burgenland",
    "stateAbbr": "01",
    "lat": 47.8969,
    "lon": 16.9111
  },
  {
    "country": "AT",
    "code": "7123",
    "name": "Mönchhof",
    "state": "Burgenland",
    "stateAbbr": "01",
    "lat": 47.8802,
    "lon": 16.9413
  },
  {
    "country": "AT",
    "code": "7131",
    "name": "Halbturn",
    "state": "Burgenland",
    "stateAbbr": "01",
    "lat": 47.8702,
    "lon": 16.9754
  },
  {
    "country": "AT",
    "code": "7132",
    "name": "Apetlon",
    "state": "Burgenland",
    "stateAbbr": "01",
    "lat": 47.7439,
    "lon": 16.8302
  },
  {
    "country": "AT",
    "code": "7132",
    "name": "Frauenkirchen",
    "state": "Burgenland",
    "stateAbbr": "01",
    "lat": 47.8368,
    "lon": 16.9258
  },
  {
    "country": "AT",
    "code": "7141",
    "name": "Podersdorf am See",
    "state": "Burgenland",
    "stateAbbr": "01",
    "lat": 47.8541,
    "lon": 16.8371
  },
  {
    "country": "AT",
    "code": "7142",
    "name": "Illmitz",
    "state": "Burgenland",
    "stateAbbr": "01",
    "lat": 47.7615,
    "lon": 16.8002
  },
  {
    "country": "AT",
    "code": "7143",
    "name": "Apetlon",
    "state": "Burgenland",
    "stateAbbr": "01",
    "lat": 47.7439,
    "lon": 16.8302
  },
  {
    "country": "AT",
    "code": "7151",
    "name": "Wallern im Burgenland",
    "state": "Burgenland",
    "stateAbbr": "01",
    "lat": 47.7285,
    "lon": 16.9371
  },
  {
    "country": "AT",
    "code": "7152",
    "name": "Pamhagen",
    "state": "Burgenland",
    "stateAbbr": "01",
    "lat": 47.7009,
    "lon": 16.9078
  },
  {
    "country": "AT",
    "code": "7152",
    "name": "Wallern im Burgenland",
    "state": "Burgenland",
    "stateAbbr": "01",
    "lat": 47.7285,
    "lon": 16.9371
  },
  {
    "country": "AT",
    "code": "7161",
    "name": "Sankt Andrä am Zicksee",
    "state": "Burgenland",
    "stateAbbr": "01",
    "lat": 47.7841,
    "lon": 16.9419
  },
  {
    "country": "AT",
    "code": "7161",
    "name": "Apetlon",
    "state": "Burgenland",
    "stateAbbr": "01",
    "lat": 47.7439,
    "lon": 16.8302
  },
  {
    "country": "AT",
    "code": "7162",
    "name": "Tadten",
    "state": "Burgenland",
    "stateAbbr": "01",
    "lat": 47.7667,
    "lon": 16.9833
  },
  {
    "country": "AT",
    "code": "7163",
    "name": "Andau",
    "state": "Burgenland",
    "stateAbbr": "01",
    "lat": 47.7744,
    "lon": 17.0329
  },
  {
    "country": "AT",
    "code": "2812",
    "name": "Landsee",
    "state": "Burgenland",
    "stateAbbr": "01",
    "lat": 47.5583,
    "lon": 16.3314
  },
  {
    "country": "AT",
    "code": "7301",
    "name": "Girm",
    "state": "Burgenland",
    "stateAbbr": "01",
    "lat": 47.6,
    "lon": 16.6067
  },
  {
    "country": "AT",
    "code": "7301",
    "name": "Deutschkreutz",
    "state": "Burgenland",
    "stateAbbr": "01",
    "lat": 47.6,
    "lon": 16.6333
  },
  {
    "country": "AT",
    "code": "7302",
    "name": "Nikitsch / Filež",
    "state": "Burgenland",
    "stateAbbr": "01",
    "lat": 47.5362,
    "lon": 16.6602
  },
  {
    "country": "AT",
    "code": "7302",
    "name": "Kroatisch Minihof / Mjenovo",
    "state": "Burgenland",
    "stateAbbr": "01",
    "lat": 47.5255,
    "lon": 16.6445
  },
  {
    "country": "AT",
    "code": "7304",
    "name": "Mitterpullendorf",
    "state": "Burgenland",
    "stateAbbr": "01",
    "lat": 47.4933,
    "lon": 16.5213
  },
  {
    "country": "AT",
    "code": "7304",
    "name": "Großwarasdorf / Veliki Borištof",
    "state": "Burgenland",
    "stateAbbr": "01",
    "lat": 47.5391,
    "lon": 16.553
  },
  {
    "country": "AT",
    "code": "7304",
    "name": "Kleinwarasdorf / Mali Borištof",
    "state": "Burgenland",
    "stateAbbr": "01",
    "lat": 47.5374,
    "lon": 16.589
  },
  {
    "country": "AT",
    "code": "7304",
    "name": "Langental / Longitolj",
    "state": "Burgenland",
    "stateAbbr": "01",
    "lat": 47.5036,
    "lon": 16.5436
  },
  {
    "country": "AT",
    "code": "7304",
    "name": "Nebersdorf / Šuševo",
    "state": "Burgenland",
    "stateAbbr": "01",
    "lat": 47.5129,
    "lon": 16.5705
  },
  {
    "country": "AT",
    "code": "7311",
    "name": "Haschendorf",
    "state": "Burgenland",
    "stateAbbr": "01",
    "lat": 47.5979,
    "lon": 16.5729
  },
  {
    "country": "AT",
    "code": "7311",
    "name": "Neckenmarkt",
    "state": "Burgenland",
    "stateAbbr": "01",
    "lat": 47.5996,
    "lon": 16.5467
  },
  {
    "country": "AT",
    "code": "7312",
    "name": "Unterpetersdorf",
    "state": "Burgenland",
    "stateAbbr": "01",
    "lat": 47.5905,
    "lon": 16.582
  },
  {
    "country": "AT",
    "code": "7312",
    "name": "Horitschon",
    "state": "Burgenland",
    "stateAbbr": "01",
    "lat": 47.5873,
    "lon": 16.547
  },
  {
    "country": "AT",
    "code": "7321",
    "name": "Lackendorf",
    "state": "Burgenland",
    "stateAbbr": "01",
    "lat": 47.59,
    "lon": 16.504
  },
  {
    "country": "AT",
    "code": "7321",
    "name": "Raiding",
    "state": "Burgenland",
    "stateAbbr": "01",
    "lat": 47.5658,
    "lon": 16.5306
  },
  {
    "country": "AT",
    "code": "7321",
    "name": "Unterfrauenhaid",
    "state": "Burgenland",
    "stateAbbr": "01",
    "lat": 47.5712,
    "lon": 16.4988
  },
  {
    "country": "AT",
    "code": "7322",
    "name": "Lackenbach",
    "state": "Burgenland",
    "stateAbbr": "01",
    "lat": 47.5904,
    "lon": 16.4653
  },
  {
    "country": "AT",
    "code": "7323",
    "name": "Ritzing",
    "state": "Burgenland",
    "stateAbbr": "01",
    "lat": 47.6132,
    "lon": 16.4955
  },
  {
    "country": "AT",
    "code": "7331",
    "name": "Weppersdorf",
    "state": "Burgenland",
    "stateAbbr": "01",
    "lat": 47.5795,
    "lon": 16.4268
  },
  {
    "country": "AT",
    "code": "7331",
    "name": "Kalkgruben",
    "state": "Burgenland",
    "stateAbbr": "01",
    "lat": 47.6211,
    "lon": 16.3961
  },
  {
    "country": "AT",
    "code": "7331",
    "name": "Tschurndorf",
    "state": "Burgenland",
    "stateAbbr": "01",
    "lat": 47.6077,
    "lon": 16.4057
  },
  {
    "country": "AT",
    "code": "7332",
    "name": "Kobersdorf",
    "state": "Burgenland",
    "stateAbbr": "01",
    "lat": 47.5957,
    "lon": 16.3917
  },
  {
    "country": "AT",
    "code": "7332",
    "name": "Oberpetersdorf",
    "state": "Burgenland",
    "stateAbbr": "01",
    "lat": 47.6155,
    "lon": 16.3765
  },
  {
    "country": "AT",
    "code": "7341",
    "name": "Landsee",
    "state": "Burgenland",
    "stateAbbr": "01",
    "lat": 47.5583,
    "lon": 16.3314
  },
  {
    "country": "AT",
    "code": "7341",
    "name": "Lindgraben",
    "state": "Burgenland",
    "stateAbbr": "01",
    "lat": 47.5748,
    "lon": 16.3989
  },
  {
    "country": "AT",
    "code": "7341",
    "name": "Markt Sankt Martin",
    "state": "Burgenland",
    "stateAbbr": "01",
    "lat": 47.562,
    "lon": 16.4251
  },
  {
    "country": "AT",
    "code": "7341",
    "name": "Neudorf bei Landsee",
    "state": "Burgenland",
    "stateAbbr": "01",
    "lat": 47.5625,
    "lon": 16.3798
  },
  {
    "country": "AT",
    "code": "7342",
    "name": "Kaisersdorf / Kalištrof",
    "state": "Burgenland",
    "stateAbbr": "01",
    "lat": 47.5374,
    "lon": 16.392
  },
  {
    "country": "AT",
    "code": "7343",
    "name": "Neutal",
    "state": "Burgenland",
    "stateAbbr": "01",
    "lat": 47.5455,
    "lon": 16.4462
  },
  {
    "country": "AT",
    "code": "7344",
    "name": "Stoob",
    "state": "Burgenland",
    "stateAbbr": "01",
    "lat": 47.5284,
    "lon": 16.4776
  },
  {
    "country": "AT",
    "code": "7350",
    "name": "Oberpullendorf / Felsöpulya",
    "state": "Burgenland",
    "stateAbbr": "01",
    "lat": 47.5108,
    "lon": 16.4994
  },
  {
    "country": "AT",
    "code": "7350",
    "name": "Mitterpullendorf",
    "state": "Burgenland",
    "stateAbbr": "01",
    "lat": 47.4933,
    "lon": 16.5213
  },
  {
    "country": "AT",
    "code": "7350",
    "name": "Stoob",
    "state": "Burgenland",
    "stateAbbr": "01",
    "lat": 47.5284,
    "lon": 16.4776
  },
  {
    "country": "AT",
    "code": "7361",
    "name": "Kroatisch Geresdorf / Gerištof",
    "state": "Burgenland",
    "stateAbbr": "01",
    "lat": 47.4914,
    "lon": 16.6102
  },
  {
    "country": "AT",
    "code": "7361",
    "name": "Lutzmannsburg",
    "state": "Burgenland",
    "stateAbbr": "01",
    "lat": 47.4637,
    "lon": 16.6366
  },
  {
    "country": "AT",
    "code": "7361",
    "name": "Frankenau / Frakanava",
    "state": "Burgenland",
    "stateAbbr": "01",
    "lat": 47.45,
    "lon": 16.6
  },
  {
    "country": "AT",
    "code": "7361",
    "name": "Strebersdorf",
    "state": "Burgenland",
    "stateAbbr": "01",
    "lat": 47.4578,
    "lon": 16.6191
  },
  {
    "country": "AT",
    "code": "7371",
    "name": "Unterrabnitz",
    "state": "Burgenland",
    "stateAbbr": "01",
    "lat": 47.4539,
    "lon": 16.3768
  },
  {
    "country": "AT",
    "code": "7371",
    "name": "Schwendgraben",
    "state": "Burgenland",
    "stateAbbr": "01",
    "lat": 47.4709,
    "lon": 16.3557
  },
  {
    "country": "AT",
    "code": "7371",
    "name": "Oberrabnitz",
    "state": "Burgenland",
    "stateAbbr": "01",
    "lat": 47.4929,
    "lon": 16.3544
  },
  {
    "country": "AT",
    "code": "7372",
    "name": "Draßmarkt",
    "state": "Burgenland",
    "stateAbbr": "01",
    "lat": 47.5167,
    "lon": 16.4
  },
  {
    "country": "AT",
    "code": "7372",
    "name": "Karl",
    "state": "Burgenland",
    "stateAbbr": "01",
    "lat": 47.5089,
    "lon": 16.3464
  },
  {
    "country": "AT",
    "code": "7373",
    "name": "Piringsdorf",
    "state": "Burgenland",
    "stateAbbr": "01",
    "lat": 47.4483,
    "lon": 16.4152
  },
  {
    "country": "AT",
    "code": "7374",
    "name": "Weingraben / Bajngrob",
    "state": "Burgenland",
    "stateAbbr": "01",
    "lat": 47.5139,
    "lon": 16.3637
  },
  {
    "country": "AT",
    "code": "7441",
    "name": "Bubendorf im Burgenland",
    "state": "Burgenland",
    "stateAbbr": "01",
    "lat": 47.4274,
    "lon": 16.3466
  },
  {
    "country": "AT",
    "code": "7441",
    "name": "Lebenbrunn",
    "state": "Burgenland",
    "stateAbbr": "01",
    "lat": 47.4627,
    "lon": 16.3023
  },
  {
    "country": "AT",
    "code": "7441",
    "name": "Steinbach im Burgenland",
    "state": "Burgenland",
    "stateAbbr": "01",
    "lat": 47.475,
    "lon": 16.3166
  },
  {
    "country": "AT",
    "code": "7441",
    "name": "Pilgersdorf",
    "state": "Burgenland",
    "stateAbbr": "01",
    "lat": 47.4411,
    "lon": 16.3492
  },
  {
    "country": "AT",
    "code": "7441",
    "name": "Kogl im Burgenland",
    "state": "Burgenland",
    "stateAbbr": "01",
    "lat": 47.4453,
    "lon": 16.2987
  },
  {
    "country": "AT",
    "code": "7441",
    "name": "Salmannsdorf",
    "state": "Burgenland",
    "stateAbbr": "01",
    "lat": 47.4167,
    "lon": 16.3333
  },
  {
    "country": "AT",
    "code": "7441",
    "name": "Deutsch Gerisdorf",
    "state": "Burgenland",
    "stateAbbr": "01",
    "lat": 47.4167,
    "lon": 16.3667
  },
  {
    "country": "AT",
    "code": "7442",
    "name": "Hochstraß",
    "state": "Burgenland",
    "stateAbbr": "01",
    "lat": 47.3923,
    "lon": 16.4106
  },
  {
    "country": "AT",
    "code": "7442",
    "name": "Hammerteich",
    "state": "Burgenland",
    "stateAbbr": "01",
    "lat": 47.4087,
    "lon": 16.4437
  },
  {
    "country": "AT",
    "code": "7442",
    "name": "Lockenhaus",
    "state": "Burgenland",
    "stateAbbr": "01",
    "lat": 47.4075,
    "lon": 16.4162
  },
  {
    "country": "AT",
    "code": "7442",
    "name": "Langeck im Burgenland",
    "state": "Burgenland",
    "stateAbbr": "01",
    "lat": 47.4,
    "lon": 16.3667
  },
  {
    "country": "AT",
    "code": "7442",
    "name": "Glashütten bei Langeck im Burgenland",
    "state": "Burgenland",
    "stateAbbr": "01",
    "lat": 47.3757,
    "lon": 16.3833
  },
  {
    "country": "AT",
    "code": "7443",
    "name": "Liebing",
    "state": "Burgenland",
    "stateAbbr": "01",
    "lat": 47.4136,
    "lon": 16.4945
  },
  {
    "country": "AT",
    "code": "7443",
    "name": "Rattersdorf",
    "state": "Burgenland",
    "stateAbbr": "01",
    "lat": 47.4078,
    "lon": 16.498
  },
  {
    "country": "AT",
    "code": "7444",
    "name": "Klostermarienberg",
    "state": "Burgenland",
    "stateAbbr": "01",
    "lat": 47.4219,
    "lon": 16.5627
  },
  {
    "country": "AT",
    "code": "7444",
    "name": "Mannersdorf an der Rabnitz",
    "state": "Burgenland",
    "stateAbbr": "01",
    "lat": 47.4281,
    "lon": 16.5268
  },
  {
    "country": "AT",
    "code": "7444",
    "name": "Unterloisdorf",
    "state": "Burgenland",
    "stateAbbr": "01",
    "lat": 47.4367,
    "lon": 16.5328
  },
  {
    "country": "AT",
    "code": "7451",
    "name": "Oberloisdorf",
    "state": "Burgenland",
    "stateAbbr": "01",
    "lat": 47.4474,
    "lon": 16.5076
  },
  {
    "country": "AT",
    "code": "7452",
    "name": "Kleinmutschen / Pervane",
    "state": "Burgenland",
    "stateAbbr": "01",
    "lat": 47.463,
    "lon": 16.5747
  },
  {
    "country": "AT",
    "code": "7452",
    "name": "Unterpullendorf / Dolnja Pulja",
    "state": "Burgenland",
    "stateAbbr": "01",
    "lat": 47.4753,
    "lon": 16.5402
  },
  {
    "country": "AT",
    "code": "7452",
    "name": "Großmutschen / Mucindrof",
    "state": "Burgenland",
    "stateAbbr": "01",
    "lat": 47.4667,
    "lon": 16.5833
  },
  {
    "country": "AT",
    "code": "7453",
    "name": "Steinberg",
    "state": "Burgenland",
    "stateAbbr": "01",
    "lat": 47.4743,
    "lon": 16.4876
  },
  {
    "country": "AT",
    "code": "7453",
    "name": "Dörfl",
    "state": "Burgenland",
    "stateAbbr": "01",
    "lat": 47.4833,
    "lon": 16.4833
  },
  {
    "country": "AT",
    "code": "2852",
    "name": "Dreihütten",
    "state": "Burgenland",
    "stateAbbr": "01",
    "lat": 47.4207,
    "lon": 16.2199
  },
  {
    "country": "AT",
    "code": "2852",
    "name": "Aschau im Burgenland",
    "state": "Burgenland",
    "stateAbbr": "01",
    "lat": 47.4,
    "lon": 16.2
  },
  {
    "country": "AT",
    "code": "7400",
    "name": "Oberschützen",
    "state": "Burgenland",
    "stateAbbr": "01",
    "lat": 47.3514,
    "lon": 16.2073
  },
  {
    "country": "AT",
    "code": "7400",
    "name": "Oberwart / Felsöör",
    "state": "Burgenland",
    "stateAbbr": "01",
    "lat": 47.2913,
    "lon": 16.1905
  },
  {
    "country": "AT",
    "code": "7400",
    "name": "Unterschützen",
    "state": "Burgenland",
    "stateAbbr": "01",
    "lat": 47.3189,
    "lon": 16.2037
  },
  {
    "country": "AT",
    "code": "7400",
    "name": "Sankt Martin in der Wart",
    "state": "Burgenland",
    "stateAbbr": "01",
    "lat": 47.2988,
    "lon": 16.2381
  },
  {
    "country": "AT",
    "code": "7400",
    "name": "Drumling",
    "state": "Burgenland",
    "stateAbbr": "01",
    "lat": 47.3167,
    "lon": 16.25
  },
  {
    "country": "AT",
    "code": "7411",
    "name": "Kitzladen",
    "state": "Burgenland",
    "stateAbbr": "01",
    "lat": 47.3167,
    "lon": 16.0667
  },
  {
    "country": "AT",
    "code": "7411",
    "name": "Loipersdorf im Burgenland",
    "state": "Burgenland",
    "stateAbbr": "01",
    "lat": 47.3333,
    "lon": 16.0833
  },
  {
    "country": "AT",
    "code": "7411",
    "name": "Buchschachen",
    "state": "Burgenland",
    "stateAbbr": "01",
    "lat": 47.3167,
    "lon": 16.1
  },
  {
    "country": "AT",
    "code": "7411",
    "name": "Markt Allhau",
    "state": "Burgenland",
    "stateAbbr": "01",
    "lat": 47.2833,
    "lon": 16.0833
  },
  {
    "country": "AT",
    "code": "7412",
    "name": "Wolfau",
    "state": "Burgenland",
    "stateAbbr": "01",
    "lat": 47.25,
    "lon": 16.1
  },
  {
    "country": "AT",
    "code": "7422",
    "name": "Riedlingsdorf",
    "state": "Burgenland",
    "stateAbbr": "01",
    "lat": 47.35,
    "lon": 16.1333
  },
  {
    "country": "AT",
    "code": "7423",
    "name": "Neustift an der Lafnitz",
    "state": "Burgenland",
    "stateAbbr": "01",
    "lat": 47.3667,
    "lon": 16.0333
  },
  {
    "country": "AT",
    "code": "7423",
    "name": "Wiesfleck",
    "state": "Burgenland",
    "stateAbbr": "01",
    "lat": 47.3833,
    "lon": 16.1333
  },
  {
    "country": "AT",
    "code": "7423",
    "name": "Hochart",
    "state": "Burgenland",
    "stateAbbr": "01",
    "lat": 47.4,
    "lon": 16.1167
  },
  {
    "country": "AT",
    "code": "7423",
    "name": "Pinkafeld",
    "state": "Burgenland",
    "stateAbbr": "01",
    "lat": 47.3667,
    "lon": 16.1167
  },
  {
    "country": "AT",
    "code": "7423",
    "name": "Weinberg im Burgenland",
    "state": "Burgenland",
    "stateAbbr": "01",
    "lat": 47.3944,
    "lon": 16.1533
  },
  {
    "country": "AT",
    "code": "7423",
    "name": "Grafenschachen",
    "state": "Burgenland",
    "stateAbbr": "01",
    "lat": 47.3667,
    "lon": 16.0667
  },
  {
    "country": "AT",
    "code": "7423",
    "name": "Kroisegg",
    "state": "Burgenland",
    "stateAbbr": "01",
    "lat": 47.3833,
    "lon": 16.0333
  },
  {
    "country": "AT",
    "code": "7423",
    "name": "Schreibersdorf",
    "state": "Burgenland",
    "stateAbbr": "01",
    "lat": 47.4,
    "lon": 16.15
  },
  {
    "country": "AT",
    "code": "7423",
    "name": "Schönherrn",
    "state": "Burgenland",
    "stateAbbr": "01",
    "lat": 47.4167,
    "lon": 16.1667
  },
  {
    "country": "AT",
    "code": "7431",
    "name": "Jormannsdorf",
    "state": "Burgenland",
    "stateAbbr": "01",
    "lat": 47.35,
    "lon": 16.2167
  },
  {
    "country": "AT",
    "code": "7431",
    "name": "Sulzriegel",
    "state": "Burgenland",
    "stateAbbr": "01",
    "lat": 47.3333,
    "lon": 16.2333
  },
  {
    "country": "AT",
    "code": "7431",
    "name": "Bad Tatzmannsdorf",
    "state": "Burgenland",
    "stateAbbr": "01",
    "lat": 47.3361,
    "lon": 16.2353
  },
  {
    "country": "AT",
    "code": "7431",
    "name": "Oberschützen",
    "state": "Burgenland",
    "stateAbbr": "01",
    "lat": 47.3514,
    "lon": 16.2073
  },
  {
    "country": "AT",
    "code": "7432",
    "name": "Willersdorf",
    "state": "Burgenland",
    "stateAbbr": "01",
    "lat": 47.3667,
    "lon": 16.2
  },
  {
    "country": "AT",
    "code": "7432",
    "name": "Schmiedrait",
    "state": "Burgenland",
    "stateAbbr": "01",
    "lat": 47.4167,
    "lon": 16.1833
  },
  {
    "country": "AT",
    "code": "7432",
    "name": "Oberschützen",
    "state": "Burgenland",
    "stateAbbr": "01",
    "lat": 47.3514,
    "lon": 16.2073
  },
  {
    "country": "AT",
    "code": "7432",
    "name": "Aschau im Burgenland",
    "state": "Burgenland",
    "stateAbbr": "01",
    "lat": 47.4,
    "lon": 16.2
  },
  {
    "country": "AT",
    "code": "7433",
    "name": "Bergwerk",
    "state": "Burgenland",
    "stateAbbr": "01",
    "lat": 47.3667,
    "lon": 16.25
  },
  {
    "country": "AT",
    "code": "7433",
    "name": "Tauchen",
    "state": "Burgenland",
    "stateAbbr": "01",
    "lat": 47.4,
    "lon": 16.2167
  },
  {
    "country": "AT",
    "code": "7433",
    "name": "Mariasdorf",
    "state": "Burgenland",
    "stateAbbr": "01",
    "lat": 47.3658,
    "lon": 16.2314
  },
  {
    "country": "AT",
    "code": "7433",
    "name": "Grodnau",
    "state": "Burgenland",
    "stateAbbr": "01",
    "lat": 47.3833,
    "lon": 16.2667
  },
  {
    "country": "AT",
    "code": "7433",
    "name": "Neustift bei Schlaining",
    "state": "Burgenland",
    "stateAbbr": "01",
    "lat": 47.35,
    "lon": 16.25
  },
  {
    "country": "AT",
    "code": "7434",
    "name": "Holzschlag",
    "state": "Burgenland",
    "stateAbbr": "01",
    "lat": 47.3833,
    "lon": 16.3
  },
  {
    "country": "AT",
    "code": "7434",
    "name": "Stuben",
    "state": "Burgenland",
    "stateAbbr": "01",
    "lat": 47.4306,
    "lon": 16.2487
  },
  {
    "country": "AT",
    "code": "7434",
    "name": "Rettenbach",
    "state": "Burgenland",
    "stateAbbr": "01",
    "lat": 47.4,
    "lon": 16.2333
  },
  {
    "country": "AT",
    "code": "7434",
    "name": "Redlschlag",
    "state": "Burgenland",
    "stateAbbr": "01",
    "lat": 47.4069,
    "lon": 16.2504
  },
  {
    "country": "AT",
    "code": "7434",
    "name": "Bernstein",
    "state": "Burgenland",
    "stateAbbr": "01",
    "lat": 47.4,
    "lon": 16.25
  },
  {
    "country": "AT",
    "code": "7434",
    "name": "Dreihütten",
    "state": "Burgenland",
    "stateAbbr": "01",
    "lat": 47.4207,
    "lon": 16.2199
  },
  {
    "country": "AT",
    "code": "7435",
    "name": "Oberkohlstätten",
    "state": "Burgenland",
    "stateAbbr": "01",
    "lat": 47.3667,
    "lon": 16.3333
  },
  {
    "country": "AT",
    "code": "7435",
    "name": "Holzschlag",
    "state": "Burgenland",
    "stateAbbr": "01",
    "lat": 47.3833,
    "lon": 16.3
  },
  {
    "country": "AT",
    "code": "7435",
    "name": "Günseck",
    "state": "Burgenland",
    "stateAbbr": "01",
    "lat": 47.4,
    "lon": 16.3167
  },
  {
    "country": "AT",
    "code": "7435",
    "name": "Glashütten bei Schlaining",
    "state": "Burgenland",
    "stateAbbr": "01",
    "lat": 47.35,
    "lon": 16.3333
  },
  {
    "country": "AT",
    "code": "7435",
    "name": "Unterkohlstätten",
    "state": "Burgenland",
    "stateAbbr": "01",
    "lat": 47.3833,
    "lon": 16.3167
  },
  {
    "country": "AT",
    "code": "7461",
    "name": "Allersdorf im Burgenland / Kljucarevci",
    "state": "Burgenland",
    "stateAbbr": "01",
    "lat": 47.3144,
    "lon": 16.301
  },
  {
    "country": "AT",
    "code": "7461",
    "name": "Podler / Poljanci",
    "state": "Burgenland",
    "stateAbbr": "01",
    "lat": 47.2833,
    "lon": 16.3333
  },
  {
    "country": "AT",
    "code": "7461",
    "name": "Rauhriegel / Rorigljin",
    "state": "Burgenland",
    "stateAbbr": "01",
    "lat": 47.3144,
    "lon": 16.301
  },
  {
    "country": "AT",
    "code": "7461",
    "name": "Goberling",
    "state": "Burgenland",
    "stateAbbr": "01",
    "lat": 47.35,
    "lon": 16.2833
  },
  {
    "country": "AT",
    "code": "7461",
    "name": "Allersgraben / Širokani",
    "state": "Burgenland",
    "stateAbbr": "01",
    "lat": 47.3167,
    "lon": 16.3167
  },
  {
    "country": "AT",
    "code": "7461",
    "name": "Neumarkt im Tauchental",
    "state": "Burgenland",
    "stateAbbr": "01",
    "lat": 47.2962,
    "lon": 16.2981
  },
  {
    "country": "AT",
    "code": "7461",
    "name": "Stadtschlaining",
    "state": "Burgenland",
    "stateAbbr": "01",
    "lat": 47.3167,
    "lon": 16.2833
  },
  {
    "country": "AT",
    "code": "7461",
    "name": "Altschlaining",
    "state": "Burgenland",
    "stateAbbr": "01",
    "lat": 47.3167,
    "lon": 16.2833
  },
  {
    "country": "AT",
    "code": "7461",
    "name": "Mönchmeierhof / Marof",
    "state": "Burgenland",
    "stateAbbr": "01",
    "lat": 47.3213,
    "lon": 16.3086
  },
  {
    "country": "AT",
    "code": "7463",
    "name": "Zuberbach / Sabara",
    "state": "Burgenland",
    "stateAbbr": "01",
    "lat": 47.3132,
    "lon": 16.3465
  },
  {
    "country": "AT",
    "code": "7463",
    "name": "Rumpersdorf / Rupišce",
    "state": "Burgenland",
    "stateAbbr": "01",
    "lat": 47.3167,
    "lon": 16.3333
  },
  {
    "country": "AT",
    "code": "7463",
    "name": "Unterpodgoria / Bošnjakov Brig",
    "state": "Burgenland",
    "stateAbbr": "01",
    "lat": 47.3143,
    "lon": 16.3574
  },
  {
    "country": "AT",
    "code": "7463",
    "name": "Oberpodgoria / Podgorje",
    "state": "Burgenland",
    "stateAbbr": "01",
    "lat": 47.322,
    "lon": 16.3452
  },
  {
    "country": "AT",
    "code": "7463",
    "name": "Weiden bei Rechnitz / Bandol",
    "state": "Burgenland",
    "stateAbbr": "01",
    "lat": 47.3,
    "lon": 16.35
  },
  {
    "country": "AT",
    "code": "7464",
    "name": "Markt Neuhodis",
    "state": "Burgenland",
    "stateAbbr": "01",
    "lat": 47.2956,
    "lon": 16.3956
  },
  {
    "country": "AT",
    "code": "7464",
    "name": "Althodis / Stari Hodas",
    "state": "Burgenland",
    "stateAbbr": "01",
    "lat": 47.3142,
    "lon": 16.3768
  },
  {
    "country": "AT",
    "code": "7471",
    "name": "Rechnitz",
    "state": "Burgenland",
    "stateAbbr": "01",
    "lat": 47.3047,
    "lon": 16.441
  },
  {
    "country": "AT",
    "code": "7472",
    "name": "Dürnbach im Burgenland / Vincjet",
    "state": "Burgenland",
    "stateAbbr": "01",
    "lat": 47.2542,
    "lon": 16.428
  },
  {
    "country": "AT",
    "code": "7472",
    "name": "Schachendorf / Cajta",
    "state": "Burgenland",
    "stateAbbr": "01",
    "lat": 47.2667,
    "lon": 16.4333
  },
  {
    "country": "AT",
    "code": "7472",
    "name": "Schandorf / Cemba",
    "state": "Burgenland",
    "stateAbbr": "01",
    "lat": 47.2418,
    "lon": 16.4227
  },
  {
    "country": "AT",
    "code": "7473",
    "name": "Woppendorf",
    "state": "Burgenland",
    "stateAbbr": "01",
    "lat": 47.2,
    "lon": 16.3833
  },
  {
    "country": "AT",
    "code": "7473",
    "name": "Hannersdorf",
    "state": "Burgenland",
    "stateAbbr": "01",
    "lat": 47.229,
    "lon": 16.3825
  },
  {
    "country": "AT",
    "code": "7473",
    "name": "Burg",
    "state": "Burgenland",
    "stateAbbr": "01",
    "lat": 47.2167,
    "lon": 16.4
  },
  {
    "country": "AT",
    "code": "7474",
    "name": "Deutsch-Schützen",
    "state": "Burgenland",
    "stateAbbr": "01",
    "lat": 47.1628,
    "lon": 16.4232
  },
  {
    "country": "AT",
    "code": "7474",
    "name": "Höll",
    "state": "Burgenland",
    "stateAbbr": "01",
    "lat": 47.143,
    "lon": 16.4398
  },
  {
    "country": "AT",
    "code": "7474",
    "name": "Sankt Kathrein im Burgenland",
    "state": "Burgenland",
    "stateAbbr": "01",
    "lat": 47.139,
    "lon": 16.4154
  },
  {
    "country": "AT",
    "code": "7474",
    "name": "Eisenberg an der Pinka",
    "state": "Burgenland",
    "stateAbbr": "01",
    "lat": 47.1803,
    "lon": 16.426
  },
  {
    "country": "AT",
    "code": "7474",
    "name": "Burg",
    "state": "Burgenland",
    "stateAbbr": "01",
    "lat": 47.2167,
    "lon": 16.4
  },
  {
    "country": "AT",
    "code": "7474",
    "name": "Edlitz im Burgenland",
    "state": "Burgenland",
    "stateAbbr": "01",
    "lat": 47.1349,
    "lon": 16.4351
  },
  {
    "country": "AT",
    "code": "7501",
    "name": "Unterwart / Alsóör",
    "state": "Burgenland",
    "stateAbbr": "01",
    "lat": 47.2627,
    "lon": 16.2282
  },
  {
    "country": "AT",
    "code": "7501",
    "name": "Eisenzicken",
    "state": "Burgenland",
    "stateAbbr": "01",
    "lat": 47.2833,
    "lon": 16.2667
  },
  {
    "country": "AT",
    "code": "7501",
    "name": "Siget in der Wart / Örisziget",
    "state": "Burgenland",
    "stateAbbr": "01",
    "lat": 47.2578,
    "lon": 16.2535
  },
  {
    "country": "AT",
    "code": "7501",
    "name": "Rotenturm an der Pinka",
    "state": "Burgenland",
    "stateAbbr": "01",
    "lat": 47.25,
    "lon": 16.25
  },
  {
    "country": "AT",
    "code": "7501",
    "name": "Oberdorf im Burgenland",
    "state": "Burgenland",
    "stateAbbr": "01",
    "lat": 47.2167,
    "lon": 16.2167
  },
  {
    "country": "AT",
    "code": "7501",
    "name": "Spitzzicken / Hrvatski Cikljin",
    "state": "Burgenland",
    "stateAbbr": "01",
    "lat": 47.281,
    "lon": 16.2808
  },
  {
    "country": "AT",
    "code": "7503",
    "name": "Großpetersdorf",
    "state": "Burgenland",
    "stateAbbr": "01",
    "lat": 47.2389,
    "lon": 16.3178
  },
  {
    "country": "AT",
    "code": "7503",
    "name": "Kleinpetersdorf",
    "state": "Burgenland",
    "stateAbbr": "01",
    "lat": 47.2167,
    "lon": 16.3333
  },
  {
    "country": "AT",
    "code": "7503",
    "name": "Miedlingsdorf",
    "state": "Burgenland",
    "stateAbbr": "01",
    "lat": 47.2667,
    "lon": 16.3167
  },
  {
    "country": "AT",
    "code": "7503",
    "name": "Welgersdorf",
    "state": "Burgenland",
    "stateAbbr": "01",
    "lat": 47.2333,
    "lon": 16.35
  },
  {
    "country": "AT",
    "code": "7503",
    "name": "Jabing",
    "state": "Burgenland",
    "stateAbbr": "01",
    "lat": 47.25,
    "lon": 16.2833
  },
  {
    "country": "AT",
    "code": "7503",
    "name": "Kleinzicken",
    "state": "Burgenland",
    "stateAbbr": "01",
    "lat": 47.2389,
    "lon": 16.3304
  },
  {
    "country": "AT",
    "code": "7503",
    "name": "Zuberbach / Sabara",
    "state": "Burgenland",
    "stateAbbr": "01",
    "lat": 47.3097,
    "lon": 16.3424
  },
  {
    "country": "AT",
    "code": "7503",
    "name": "Dürnbach im Burgenland / Vincjet",
    "state": "Burgenland",
    "stateAbbr": "01",
    "lat": 47.2619,
    "lon": 16.4145
  },
  {
    "country": "AT",
    "code": "7511",
    "name": "Neuhaus in der Wart",
    "state": "Burgenland",
    "stateAbbr": "01",
    "lat": 47.2,
    "lon": 16.31
  },
  {
    "country": "AT",
    "code": "7511",
    "name": "Rohrbach an der Teich",
    "state": "Burgenland",
    "stateAbbr": "01",
    "lat": 47.2,
    "lon": 16.2833
  },
  {
    "country": "AT",
    "code": "7511",
    "name": "Großbachselten",
    "state": "Burgenland",
    "stateAbbr": "01",
    "lat": 47.2167,
    "lon": 16.3
  },
  {
    "country": "AT",
    "code": "7511",
    "name": "Mischendorf",
    "state": "Burgenland",
    "stateAbbr": "01",
    "lat": 47.1833,
    "lon": 16.3167
  },
  {
    "country": "AT",
    "code": "7511",
    "name": "Kotezicken",
    "state": "Burgenland",
    "stateAbbr": "01",
    "lat": 47.2,
    "lon": 16.35
  },
  {
    "country": "AT",
    "code": "7511",
    "name": "Kleinbachselten",
    "state": "Burgenland",
    "stateAbbr": "01",
    "lat": 47.2,
    "lon": 16.3
  },
  {
    "country": "AT",
    "code": "7512",
    "name": "Harmisch",
    "state": "Burgenland",
    "stateAbbr": "01",
    "lat": 47.1478,
    "lon": 16.3823
  },
  {
    "country": "AT",
    "code": "7512",
    "name": "Kohfidisch",
    "state": "Burgenland",
    "stateAbbr": "01",
    "lat": 47.1747,
    "lon": 16.357
  },
  {
    "country": "AT",
    "code": "7512",
    "name": "Kirchfidisch",
    "state": "Burgenland",
    "stateAbbr": "01",
    "lat": 47.1609,
    "lon": 16.3485
  },
  {
    "country": "AT",
    "code": "7512",
    "name": "Badersdorf",
    "state": "Burgenland",
    "stateAbbr": "01",
    "lat": 47.2,
    "lon": 16.3667
  },
  {
    "country": "AT",
    "code": "7531",
    "name": "Kemeten",
    "state": "Burgenland",
    "stateAbbr": "01",
    "lat": 47.2333,
    "lon": 16.15
  },
  {
    "country": "AT",
    "code": "7532",
    "name": "Litzelsdorf",
    "state": "Burgenland",
    "stateAbbr": "01",
    "lat": 47.2,
    "lon": 16.15
  },
  {
    "country": "AT",
    "code": "8240",
    "name": "Pinkafeld",
    "state": "Burgenland",
    "stateAbbr": "01",
    "lat": 47.3667,
    "lon": 16.1167
  },
  {
    "country": "AT",
    "code": "9020",
    "name": "Klagenfurt,02.Bez.:Innere Stadt",
    "state": "Kärnten",
    "stateAbbr": "02",
    "lat": 46.6393,
    "lon": 14.2965
  },
  {
    "country": "AT",
    "code": "9020",
    "name": "Klagenfurt,11.Bez.:St. Ruprecht",
    "state": "Kärnten",
    "stateAbbr": "02",
    "lat": 46.6393,
    "lon": 14.2965
  },
  {
    "country": "AT",
    "code": "9020",
    "name": "Klagenfurt,07.Bez.:Viktringer Vorstadt",
    "state": "Kärnten",
    "stateAbbr": "02",
    "lat": 46.6393,
    "lon": 14.2965
  },
  {
    "country": "AT",
    "code": "9020",
    "name": "Klagenfurt,12.Bez.:St. Martin",
    "state": "Kärnten",
    "stateAbbr": "02",
    "lat": 46.6393,
    "lon": 14.2965
  },
  {
    "country": "AT",
    "code": "9020",
    "name": "Klagenfurt,13.Bez.:Viktring",
    "state": "Kärnten",
    "stateAbbr": "02",
    "lat": 46.6393,
    "lon": 14.2965
  },
  {
    "country": "AT",
    "code": "9020",
    "name": "Klagenfurt,08.Bez.:Villacher Vorstadt",
    "state": "Kärnten",
    "stateAbbr": "02",
    "lat": 46.6393,
    "lon": 14.2965
  },
  {
    "country": "AT",
    "code": "9020",
    "name": "Klagenfurt,09.Bez.:Annabichl",
    "state": "Kärnten",
    "stateAbbr": "02",
    "lat": 46.6393,
    "lon": 14.2965
  },
  {
    "country": "AT",
    "code": "9020",
    "name": "Klagenfurt,10.Bez.:St. Peter",
    "state": "Kärnten",
    "stateAbbr": "02",
    "lat": 46.6393,
    "lon": 14.2965
  },
  {
    "country": "AT",
    "code": "9020",
    "name": "Klagenfurt,01.Bez.:Innere Stadt",
    "state": "Kärnten",
    "stateAbbr": "02",
    "lat": 46.6393,
    "lon": 14.2965
  },
  {
    "country": "AT",
    "code": "9020",
    "name": "Klagenfurt,15.Bez.:Hörtendorf",
    "state": "Kärnten",
    "stateAbbr": "02",
    "lat": 46.6393,
    "lon": 14.2965
  },
  {
    "country": "AT",
    "code": "9020",
    "name": "Klagenfurt,06.Bez.:Völkermarkt.Vorst.",
    "state": "Kärnten",
    "stateAbbr": "02",
    "lat": 46.6393,
    "lon": 14.2965
  },
  {
    "country": "AT",
    "code": "9020",
    "name": "Klagenfurt,05.Bez.:St.Veiter Vorstadt",
    "state": "Kärnten",
    "stateAbbr": "02",
    "lat": 46.6393,
    "lon": 14.2965
  },
  {
    "country": "AT",
    "code": "9020",
    "name": "Klagenfurt,03.Bez.:Innere Stadt",
    "state": "Kärnten",
    "stateAbbr": "02",
    "lat": 46.6393,
    "lon": 14.2965
  },
  {
    "country": "AT",
    "code": "9020",
    "name": "Klagenfurt,04.Bez.:Innere Stadt",
    "state": "Kärnten",
    "stateAbbr": "02",
    "lat": 46.6393,
    "lon": 14.2965
  },
  {
    "country": "AT",
    "code": "9061",
    "name": "Klagenfurt,09.Bez.:Annabichl",
    "state": "Kärnten",
    "stateAbbr": "02",
    "lat": 46.6669,
    "lon": 14.239
  },
  {
    "country": "AT",
    "code": "9061",
    "name": "Klagenfurt,14.Bez.:Wölfnitz",
    "state": "Kärnten",
    "stateAbbr": "02",
    "lat": 46.6669,
    "lon": 14.239
  },
  {
    "country": "AT",
    "code": "9063",
    "name": "Klagenfurt,14.Bez.:Wölfnitz",
    "state": "Kärnten",
    "stateAbbr": "02",
    "lat": 46.6393,
    "lon": 14.2965
  },
  {
    "country": "AT",
    "code": "9065",
    "name": "Klagenfurt,10.Bez.:St. Peter",
    "state": "Kärnten",
    "stateAbbr": "02",
    "lat": 46.6393,
    "lon": 14.2965
  },
  {
    "country": "AT",
    "code": "9073",
    "name": "Klagenfurt,13.Bez.:Viktring",
    "state": "Kärnten",
    "stateAbbr": "02",
    "lat": 46.5905,
    "lon": 14.2869
  },
  {
    "country": "AT",
    "code": "9201",
    "name": "Klagenfurt,14.Bez.:Wölfnitz",
    "state": "Kärnten",
    "stateAbbr": "02",
    "lat": 46.6393,
    "lon": 14.2965
  },
  {
    "country": "AT",
    "code": "9500",
    "name": "Villach-Innere Stadt",
    "state": "Kärnten",
    "stateAbbr": "02",
    "lat": 46.6206,
    "lon": 13.8775
  },
  {
    "country": "AT",
    "code": "9500",
    "name": "Weißenbach",
    "state": "Kärnten",
    "stateAbbr": "02",
    "lat": 46.6112,
    "lon": 13.836
  },
  {
    "country": "AT",
    "code": "9500",
    "name": "Landskron",
    "state": "Kärnten",
    "stateAbbr": "02",
    "lat": 46.6167,
    "lon": 13.8833
  },
  {
    "country": "AT",
    "code": "9500",
    "name": "Dobrova",
    "state": "Kärnten",
    "stateAbbr": "02",
    "lat": 46.6112,
    "lon": 13.836
  },
  {
    "country": "AT",
    "code": "9500",
    "name": "Villach-St. Agathen und Perau",
    "state": "Kärnten",
    "stateAbbr": "02",
    "lat": 46.6206,
    "lon": 13.8775
  },
  {
    "country": "AT",
    "code": "9500",
    "name": "Duel",
    "state": "Kärnten",
    "stateAbbr": "02",
    "lat": 46.6112,
    "lon": 13.836
  },
  {
    "country": "AT",
    "code": "9500",
    "name": "Villach-St. Martin",
    "state": "Kärnten",
    "stateAbbr": "02",
    "lat": 46.6206,
    "lon": 13.8775
  },
  {
    "country": "AT",
    "code": "9500",
    "name": "Untere Fellach",
    "state": "Kärnten",
    "stateAbbr": "02",
    "lat": 46.625,
    "lon": 13.8268
  },
  {
    "country": "AT",
    "code": "9500",
    "name": "St. Leonhard",
    "state": "Kärnten",
    "stateAbbr": "02",
    "lat": 46.6206,
    "lon": 13.8775
  },
  {
    "country": "AT",
    "code": "9500",
    "name": "Drautschen",
    "state": "Kärnten",
    "stateAbbr": "02",
    "lat": 46.6206,
    "lon": 13.8775
  },
  {
    "country": "AT",
    "code": "9500",
    "name": "Heiligengeist",
    "state": "Kärnten",
    "stateAbbr": "02",
    "lat": 46.6125,
    "lon": 13.7478
  },
  {
    "country": "AT",
    "code": "9500",
    "name": "Neufellach",
    "state": "Kärnten",
    "stateAbbr": "02",
    "lat": 46.6206,
    "lon": 13.8775
  },
  {
    "country": "AT",
    "code": "9500",
    "name": "Kumitz",
    "state": "Kärnten",
    "stateAbbr": "02",
    "lat": 46.6206,
    "lon": 13.8775
  },
  {
    "country": "AT",
    "code": "9500",
    "name": "Kleinvassach",
    "state": "Kärnten",
    "stateAbbr": "02",
    "lat": 46.6309,
    "lon": 13.8528
  },
  {
    "country": "AT",
    "code": "9500",
    "name": "Villach-Lind",
    "state": "Kärnten",
    "stateAbbr": "02",
    "lat": 46.6206,
    "lon": 13.8775
  },
  {
    "country": "AT",
    "code": "9500",
    "name": "Oberwollanig",
    "state": "Kärnten",
    "stateAbbr": "02",
    "lat": 46.6506,
    "lon": 13.8339
  },
  {
    "country": "AT",
    "code": "9500",
    "name": "Rennstein",
    "state": "Kärnten",
    "stateAbbr": "02",
    "lat": 46.6206,
    "lon": 13.8775
  },
  {
    "country": "AT",
    "code": "9500",
    "name": "Turdanitsch",
    "state": "Kärnten",
    "stateAbbr": "02",
    "lat": 46.5833,
    "lon": 13.8667
  },
  {
    "country": "AT",
    "code": "9500",
    "name": "Villach-Seebach-Wasenboden",
    "state": "Kärnten",
    "stateAbbr": "02",
    "lat": 46.6206,
    "lon": 13.8775
  },
  {
    "country": "AT",
    "code": "9500",
    "name": "Villach-Auen",
    "state": "Kärnten",
    "stateAbbr": "02",
    "lat": 46.5996,
    "lon": 13.8439
  },
  {
    "country": "AT",
    "code": "9500",
    "name": "Mittewald ob Villach",
    "state": "Kärnten",
    "stateAbbr": "02",
    "lat": 46.6206,
    "lon": 13.8775
  },
  {
    "country": "AT",
    "code": "9500",
    "name": "Goritschach",
    "state": "Kärnten",
    "stateAbbr": "02",
    "lat": 46.6167,
    "lon": 13.8167
  },
  {
    "country": "AT",
    "code": "9500",
    "name": "Neulandskron",
    "state": "Kärnten",
    "stateAbbr": "02",
    "lat": 46.6206,
    "lon": 13.8775
  },
  {
    "country": "AT",
    "code": "9500",
    "name": "Pogöriach",
    "state": "Kärnten",
    "stateAbbr": "02",
    "lat": 46.6167,
    "lon": 13.8
  },
  {
    "country": "AT",
    "code": "9500",
    "name": "St. Georgen",
    "state": "Kärnten",
    "stateAbbr": "02",
    "lat": 46.6206,
    "lon": 13.8775
  },
  {
    "country": "AT",
    "code": "9500",
    "name": "Villach-Warmbad-Judendorf",
    "state": "Kärnten",
    "stateAbbr": "02",
    "lat": 46.6072,
    "lon": 13.7969
  },
  {
    "country": "AT",
    "code": "9500",
    "name": "St. Michael",
    "state": "Kärnten",
    "stateAbbr": "02",
    "lat": 46.6206,
    "lon": 13.8775
  },
  {
    "country": "AT",
    "code": "9500",
    "name": "Tschinowitsch",
    "state": "Kärnten",
    "stateAbbr": "02",
    "lat": 46.5833,
    "lon": 13.85
  },
  {
    "country": "AT",
    "code": "9500",
    "name": "Obere Fellach",
    "state": "Kärnten",
    "stateAbbr": "02",
    "lat": 46.629,
    "lon": 13.809
  },
  {
    "country": "AT",
    "code": "9500",
    "name": "Prossowitsch",
    "state": "Kärnten",
    "stateAbbr": "02",
    "lat": 46.6,
    "lon": 13.8833
  },
  {
    "country": "AT",
    "code": "9500",
    "name": "Zauchen",
    "state": "Kärnten",
    "stateAbbr": "02",
    "lat": 46.6167,
    "lon": 13.9
  },
  {
    "country": "AT",
    "code": "9500",
    "name": "Großvassach",
    "state": "Kärnten",
    "stateAbbr": "02",
    "lat": 46.6273,
    "lon": 13.8495
  },
  {
    "country": "AT",
    "code": "9500",
    "name": "Villach-Völkendorf",
    "state": "Kärnten",
    "stateAbbr": "02",
    "lat": 46.6167,
    "lon": 13.8333
  },
  {
    "country": "AT",
    "code": "9500",
    "name": "Maria Gail",
    "state": "Kärnten",
    "stateAbbr": "02",
    "lat": 46.5922,
    "lon": 13.8808
  },
  {
    "country": "AT",
    "code": "9500",
    "name": "Unterwollanig",
    "state": "Kärnten",
    "stateAbbr": "02",
    "lat": 46.6372,
    "lon": 13.8272
  },
  {
    "country": "AT",
    "code": "9500",
    "name": "Kleinsattel",
    "state": "Kärnten",
    "stateAbbr": "02",
    "lat": 46.6,
    "lon": 13.8833
  },
  {
    "country": "AT",
    "code": "9500",
    "name": "Gritschach",
    "state": "Kärnten",
    "stateAbbr": "02",
    "lat": 46.6346,
    "lon": 13.8371
  },
  {
    "country": "AT",
    "code": "9504",
    "name": "Villach-Völkendorf",
    "state": "Kärnten",
    "stateAbbr": "02",
    "lat": 46.6167,
    "lon": 13.8333
  },
  {
    "country": "AT",
    "code": "9504",
    "name": "Villach-Warmbad-Judendorf",
    "state": "Kärnten",
    "stateAbbr": "02",
    "lat": 46.6072,
    "lon": 13.7969
  },
  {
    "country": "AT",
    "code": "9504",
    "name": "Villach-Auen",
    "state": "Kärnten",
    "stateAbbr": "02",
    "lat": 46.5996,
    "lon": 13.8439
  },
  {
    "country": "AT",
    "code": "9523",
    "name": "Neulandskron",
    "state": "Kärnten",
    "stateAbbr": "02",
    "lat": 46.6333,
    "lon": 13.9111
  },
  {
    "country": "AT",
    "code": "9523",
    "name": "Heiligen Gestade",
    "state": "Kärnten",
    "stateAbbr": "02",
    "lat": 46.6112,
    "lon": 13.836
  },
  {
    "country": "AT",
    "code": "9523",
    "name": "Gratschach",
    "state": "Kärnten",
    "stateAbbr": "02",
    "lat": 46.6333,
    "lon": 13.9
  },
  {
    "country": "AT",
    "code": "9523",
    "name": "Urlaken",
    "state": "Kärnten",
    "stateAbbr": "02",
    "lat": 46.6333,
    "lon": 13.9111
  },
  {
    "country": "AT",
    "code": "9523",
    "name": "St. Andrä",
    "state": "Kärnten",
    "stateAbbr": "02",
    "lat": 46.6333,
    "lon": 13.9111
  },
  {
    "country": "AT",
    "code": "9523",
    "name": "Landskron",
    "state": "Kärnten",
    "stateAbbr": "02",
    "lat": 46.6167,
    "lon": 13.8833
  },
  {
    "country": "AT",
    "code": "9523",
    "name": "St. Ruprecht",
    "state": "Kärnten",
    "stateAbbr": "02",
    "lat": 46.6333,
    "lon": 13.9111
  },
  {
    "country": "AT",
    "code": "9523",
    "name": "Kumitz",
    "state": "Kärnten",
    "stateAbbr": "02",
    "lat": 46.6333,
    "lon": 13.9111
  },
  {
    "country": "AT",
    "code": "9524",
    "name": "Landskron",
    "state": "Kärnten",
    "stateAbbr": "02",
    "lat": 46.6167,
    "lon": 13.8833
  },
  {
    "country": "AT",
    "code": "9524",
    "name": "St. Ulrich",
    "state": "Kärnten",
    "stateAbbr": "02",
    "lat": 46.6167,
    "lon": 13.8833
  },
  {
    "country": "AT",
    "code": "9524",
    "name": "St. Magdalen",
    "state": "Kärnten",
    "stateAbbr": "02",
    "lat": 46.6167,
    "lon": 13.8833
  },
  {
    "country": "AT",
    "code": "9524",
    "name": "Villach-Seebach-Wasenboden",
    "state": "Kärnten",
    "stateAbbr": "02",
    "lat": 46.6167,
    "lon": 13.8833
  },
  {
    "country": "AT",
    "code": "9580",
    "name": "Bogenfeld",
    "state": "Kärnten",
    "stateAbbr": "02",
    "lat": 46.5833,
    "lon": 13.9333
  },
  {
    "country": "AT",
    "code": "9580",
    "name": "Drobollach am Faaker See",
    "state": "Kärnten",
    "stateAbbr": "02",
    "lat": 46.5841,
    "lon": 13.9274
  },
  {
    "country": "AT",
    "code": "9580",
    "name": "Kratschach",
    "state": "Kärnten",
    "stateAbbr": "02",
    "lat": 46.6,
    "lon": 13.9
  },
  {
    "country": "AT",
    "code": "9580",
    "name": "Serai",
    "state": "Kärnten",
    "stateAbbr": "02",
    "lat": 46.5841,
    "lon": 13.9274
  },
  {
    "country": "AT",
    "code": "9580",
    "name": "Mittewald",
    "state": "Kärnten",
    "stateAbbr": "02",
    "lat": 46.5897,
    "lon": 13.8906
  },
  {
    "country": "AT",
    "code": "9580",
    "name": "Großsattel",
    "state": "Kärnten",
    "stateAbbr": "02",
    "lat": 46.6,
    "lon": 13.9167
  },
  {
    "country": "AT",
    "code": "9580",
    "name": "Maria Gail",
    "state": "Kärnten",
    "stateAbbr": "02",
    "lat": 46.5922,
    "lon": 13.8808
  },
  {
    "country": "AT",
    "code": "9580",
    "name": "Egg am Faaker See",
    "state": "Kärnten",
    "stateAbbr": "02",
    "lat": 46.5868,
    "lon": 13.9337
  },
  {
    "country": "AT",
    "code": "9580",
    "name": "Greuth",
    "state": "Kärnten",
    "stateAbbr": "02",
    "lat": 46.6112,
    "lon": 13.836
  },
  {
    "country": "AT",
    "code": "9580",
    "name": "Graschitz",
    "state": "Kärnten",
    "stateAbbr": "02",
    "lat": 46.5841,
    "lon": 13.9274
  },
  {
    "country": "AT",
    "code": "9580",
    "name": "St. Niklas an der Drau",
    "state": "Kärnten",
    "stateAbbr": "02",
    "lat": 46.6042,
    "lon": 13.8644
  },
  {
    "country": "AT",
    "code": "9585",
    "name": "Villach-Warmbad-Judendorf",
    "state": "Kärnten",
    "stateAbbr": "02",
    "lat": 46.6072,
    "lon": 13.7969
  },
  {
    "country": "AT",
    "code": "9586",
    "name": "Unterfederaun",
    "state": "Kärnten",
    "stateAbbr": "02",
    "lat": 46.5758,
    "lon": 13.7778
  },
  {
    "country": "AT",
    "code": "9586",
    "name": "Oberschütt",
    "state": "Kärnten",
    "stateAbbr": "02",
    "lat": 46.5697,
    "lon": 13.7581
  },
  {
    "country": "AT",
    "code": "9586",
    "name": "Unterschütt",
    "state": "Kärnten",
    "stateAbbr": "02",
    "lat": 46.5656,
    "lon": 13.7861
  },
  {
    "country": "AT",
    "code": "9586",
    "name": "Oberfederaun",
    "state": "Kärnten",
    "stateAbbr": "02",
    "lat": 46.5833,
    "lon": 13.8167
  },
  {
    "country": "AT",
    "code": "9587",
    "name": "Oberschütt",
    "state": "Kärnten",
    "stateAbbr": "02",
    "lat": 46.5697,
    "lon": 13.7581
  },
  {
    "country": "AT",
    "code": "9614",
    "name": "Bodenhof",
    "state": "Kärnten",
    "stateAbbr": "02",
    "lat": 46.5969,
    "lon": 13.5233
  },
  {
    "country": "AT",
    "code": "9614",
    "name": "Vorderberg",
    "state": "Kärnten",
    "stateAbbr": "02",
    "lat": 46.5969,
    "lon": 13.5233
  },
  {
    "country": "AT",
    "code": "9615",
    "name": "Schinzengraben",
    "state": "Kärnten",
    "stateAbbr": "02",
    "lat": 46.6088,
    "lon": 13.5093
  },
  {
    "country": "AT",
    "code": "9615",
    "name": "Köstendorf",
    "state": "Kärnten",
    "stateAbbr": "02",
    "lat": 46.6167,
    "lon": 13.5
  },
  {
    "country": "AT",
    "code": "9615",
    "name": "Wittenig",
    "state": "Kärnten",
    "stateAbbr": "02",
    "lat": 46.615,
    "lon": 13.4538
  },
  {
    "country": "AT",
    "code": "9615",
    "name": "Möderndorf",
    "state": "Kärnten",
    "stateAbbr": "02",
    "lat": 46.6128,
    "lon": 13.3658
  },
  {
    "country": "AT",
    "code": "9615",
    "name": "Schinzengraben",
    "state": "Kärnten",
    "stateAbbr": "02",
    "lat": 46.615,
    "lon": 13.4538
  },
  {
    "country": "AT",
    "code": "9615",
    "name": "Latschach",
    "state": "Kärnten",
    "stateAbbr": "02",
    "lat": 46.6,
    "lon": 13.4667
  },
  {
    "country": "AT",
    "code": "9615",
    "name": "Presseggen",
    "state": "Kärnten",
    "stateAbbr": "02",
    "lat": 46.615,
    "lon": 13.4538
  },
  {
    "country": "AT",
    "code": "9615",
    "name": "Förolach",
    "state": "Kärnten",
    "stateAbbr": "02",
    "lat": 46.6328,
    "lon": 13.4717
  },
  {
    "country": "AT",
    "code": "9615",
    "name": "Sonnleitn",
    "state": "Kärnten",
    "stateAbbr": "02",
    "lat": 46.615,
    "lon": 13.4538
  },
  {
    "country": "AT",
    "code": "9615",
    "name": "Zuchen",
    "state": "Kärnten",
    "stateAbbr": "02",
    "lat": 46.615,
    "lon": 13.4538
  },
  {
    "country": "AT",
    "code": "9615",
    "name": "Görtschach",
    "state": "Kärnten",
    "stateAbbr": "02",
    "lat": 46.6128,
    "lon": 13.465
  },
  {
    "country": "AT",
    "code": "9615",
    "name": "Siebenbrünn",
    "state": "Kärnten",
    "stateAbbr": "02",
    "lat": 46.615,
    "lon": 13.4538
  },
  {
    "country": "AT",
    "code": "9620",
    "name": "Podlanig",
    "state": "Kärnten",
    "stateAbbr": "02",
    "lat": 46.6093,
    "lon": 13.3443
  },
  {
    "country": "AT",
    "code": "9620",
    "name": "Kühweg",
    "state": "Kärnten",
    "stateAbbr": "02",
    "lat": 46.6333,
    "lon": 13.3667
  },
  {
    "country": "AT",
    "code": "9620",
    "name": "Potschach",
    "state": "Kärnten",
    "stateAbbr": "02",
    "lat": 46.6093,
    "lon": 13.3443
  },
  {
    "country": "AT",
    "code": "9620",
    "name": "Jadersdorf",
    "state": "Kärnten",
    "stateAbbr": "02",
    "lat": 46.6631,
    "lon": 13.3253
  },
  {
    "country": "AT",
    "code": "9620",
    "name": "Khünburg",
    "state": "Kärnten",
    "stateAbbr": "02",
    "lat": 46.6093,
    "lon": 13.3443
  },
  {
    "country": "AT",
    "code": "9620",
    "name": "Liesch",
    "state": "Kärnten",
    "stateAbbr": "02",
    "lat": 46.65,
    "lon": 13.3333
  },
  {
    "country": "AT",
    "code": "9620",
    "name": "Kühwegboden",
    "state": "Kärnten",
    "stateAbbr": "02",
    "lat": 46.6093,
    "lon": 13.3443
  },
  {
    "country": "AT",
    "code": "9620",
    "name": "Watschig",
    "state": "Kärnten",
    "stateAbbr": "02",
    "lat": 46.6194,
    "lon": 13.31
  },
  {
    "country": "AT",
    "code": "9620",
    "name": "Eggforst",
    "state": "Kärnten",
    "stateAbbr": "02",
    "lat": 46.6093,
    "lon": 13.3443
  },
  {
    "country": "AT",
    "code": "9620",
    "name": "Guggenberg",
    "state": "Kärnten",
    "stateAbbr": "02",
    "lat": 46.6333,
    "lon": 13.3
  },
  {
    "country": "AT",
    "code": "9620",
    "name": "Kreuth ob Möschach",
    "state": "Kärnten",
    "stateAbbr": "02",
    "lat": 46.6093,
    "lon": 13.3443
  },
  {
    "country": "AT",
    "code": "9620",
    "name": "Obermöschach",
    "state": "Kärnten",
    "stateAbbr": "02",
    "lat": 46.6389,
    "lon": 13.3492
  },
  {
    "country": "AT",
    "code": "9620",
    "name": "Radnigforst",
    "state": "Kärnten",
    "stateAbbr": "02",
    "lat": 46.6093,
    "lon": 13.3443
  },
  {
    "country": "AT",
    "code": "9620",
    "name": "Untermöschach",
    "state": "Kärnten",
    "stateAbbr": "02",
    "lat": 46.6333,
    "lon": 13.35
  },
  {
    "country": "AT",
    "code": "9620",
    "name": "Sonnleitn",
    "state": "Kärnten",
    "stateAbbr": "02",
    "lat": 46.6093,
    "lon": 13.3443
  },
  {
    "country": "AT",
    "code": "9620",
    "name": "St. Lorenzen im Gitschtal",
    "state": "Kärnten",
    "stateAbbr": "02",
    "lat": 46.65,
    "lon": 13.3
  },
  {
    "country": "AT",
    "code": "9620",
    "name": "Postran",
    "state": "Kärnten",
    "stateAbbr": "02",
    "lat": 46.6093,
    "lon": 13.3443
  },
  {
    "country": "AT",
    "code": "9620",
    "name": "Aigen",
    "state": "Kärnten",
    "stateAbbr": "02",
    "lat": 46.6093,
    "lon": 13.3443
  },
  {
    "country": "AT",
    "code": "9620",
    "name": "Neudorf",
    "state": "Kärnten",
    "stateAbbr": "02",
    "lat": 46.6093,
    "lon": 13.3443
  },
  {
    "country": "AT",
    "code": "9620",
    "name": "Kraß",
    "state": "Kärnten",
    "stateAbbr": "02",
    "lat": 46.6093,
    "lon": 13.3443
  },
  {
    "country": "AT",
    "code": "9620",
    "name": "Bergl",
    "state": "Kärnten",
    "stateAbbr": "02",
    "lat": 46.6093,
    "lon": 13.3443
  },
  {
    "country": "AT",
    "code": "9620",
    "name": "Grünburg",
    "state": "Kärnten",
    "stateAbbr": "02",
    "lat": 46.6093,
    "lon": 13.3443
  },
  {
    "country": "AT",
    "code": "9620",
    "name": "Braunitzen",
    "state": "Kärnten",
    "stateAbbr": "02",
    "lat": 46.6093,
    "lon": 13.3443
  },
  {
    "country": "AT",
    "code": "9620",
    "name": "Brunn",
    "state": "Kärnten",
    "stateAbbr": "02",
    "lat": 46.6776,
    "lon": 13.2736
  },
  {
    "country": "AT",
    "code": "9620",
    "name": "Wulzentratten",
    "state": "Kärnten",
    "stateAbbr": "02",
    "lat": 46.6776,
    "lon": 13.2736
  },
  {
    "country": "AT",
    "code": "9620",
    "name": "Burgstall",
    "state": "Kärnten",
    "stateAbbr": "02",
    "lat": 46.6093,
    "lon": 13.3443
  },
  {
    "country": "AT",
    "code": "9620",
    "name": "Neuprießenegg",
    "state": "Kärnten",
    "stateAbbr": "02",
    "lat": 46.6093,
    "lon": 13.3443
  },
  {
    "country": "AT",
    "code": "9620",
    "name": "Mitschig",
    "state": "Kärnten",
    "stateAbbr": "02",
    "lat": 46.6244,
    "lon": 13.3392
  },
  {
    "country": "AT",
    "code": "9620",
    "name": "Sonnenalpe Nassfeld",
    "state": "Kärnten",
    "stateAbbr": "02",
    "lat": 46.5633,
    "lon": 13.2739
  },
  {
    "country": "AT",
    "code": "9620",
    "name": "Obervellach",
    "state": "Kärnten",
    "stateAbbr": "02",
    "lat": 46.6335,
    "lon": 13.3955
  },
  {
    "country": "AT",
    "code": "9620",
    "name": "Lassendorf",
    "state": "Kärnten",
    "stateAbbr": "02",
    "lat": 46.6619,
    "lon": 13.3069
  },
  {
    "country": "AT",
    "code": "9620",
    "name": "Untervellach",
    "state": "Kärnten",
    "stateAbbr": "02",
    "lat": 46.6214,
    "lon": 13.3931
  },
  {
    "country": "AT",
    "code": "9620",
    "name": "Möderndorf",
    "state": "Kärnten",
    "stateAbbr": "02",
    "lat": 46.6128,
    "lon": 13.3658
  },
  {
    "country": "AT",
    "code": "9620",
    "name": "Radnig",
    "state": "Kärnten",
    "stateAbbr": "02",
    "lat": 46.6444,
    "lon": 13.3639
  },
  {
    "country": "AT",
    "code": "9620",
    "name": "Kraschach",
    "state": "Kärnten",
    "stateAbbr": "02",
    "lat": 46.6333,
    "lon": 13.3167
  },
  {
    "country": "AT",
    "code": "9620",
    "name": "Presseggersee",
    "state": "Kärnten",
    "stateAbbr": "02",
    "lat": 46.631,
    "lon": 13.438
  },
  {
    "country": "AT",
    "code": "9620",
    "name": "Kameritsch",
    "state": "Kärnten",
    "stateAbbr": "02",
    "lat": 46.6333,
    "lon": 13.3167
  },
  {
    "country": "AT",
    "code": "9620",
    "name": "Hermagor",
    "state": "Kärnten",
    "stateAbbr": "02",
    "lat": 46.6272,
    "lon": 13.3672
  },
  {
    "country": "AT",
    "code": "9622",
    "name": "Regitt",
    "state": "Kärnten",
    "stateAbbr": "02",
    "lat": 46.6776,
    "lon": 13.2736
  },
  {
    "country": "AT",
    "code": "9622",
    "name": "Weißbriach",
    "state": "Kärnten",
    "stateAbbr": "02",
    "lat": 46.6872,
    "lon": 13.2469
  },
  {
    "country": "AT",
    "code": "9622",
    "name": "Leditz",
    "state": "Kärnten",
    "stateAbbr": "02",
    "lat": 46.6776,
    "lon": 13.2736
  },
  {
    "country": "AT",
    "code": "9622",
    "name": "Langwiesen",
    "state": "Kärnten",
    "stateAbbr": "02",
    "lat": 46.6776,
    "lon": 13.2736
  },
  {
    "country": "AT",
    "code": "9622",
    "name": "Golz",
    "state": "Kärnten",
    "stateAbbr": "02",
    "lat": 46.6776,
    "lon": 13.2736
  },
  {
    "country": "AT",
    "code": "9623",
    "name": "Edling",
    "state": "Kärnten",
    "stateAbbr": "02",
    "lat": 46.6167,
    "lon": 13.5167
  },
  {
    "country": "AT",
    "code": "9623",
    "name": "Dragantschach",
    "state": "Kärnten",
    "stateAbbr": "02",
    "lat": 46.6088,
    "lon": 13.5093
  },
  {
    "country": "AT",
    "code": "9623",
    "name": "Hadersdorf",
    "state": "Kärnten",
    "stateAbbr": "02",
    "lat": 46.6167,
    "lon": 13.55
  },
  {
    "country": "AT",
    "code": "9623",
    "name": "St. Stefan an der Gail",
    "state": "Kärnten",
    "stateAbbr": "02",
    "lat": 46.6088,
    "lon": 13.5093
  },
  {
    "country": "AT",
    "code": "9623",
    "name": "Pölland",
    "state": "Kärnten",
    "stateAbbr": "02",
    "lat": 46.6375,
    "lon": 13.5219
  },
  {
    "country": "AT",
    "code": "9623",
    "name": "Nieselach",
    "state": "Kärnten",
    "stateAbbr": "02",
    "lat": 46.6088,
    "lon": 13.5093
  },
  {
    "country": "AT",
    "code": "9623",
    "name": "Tratten",
    "state": "Kärnten",
    "stateAbbr": "02",
    "lat": 46.6258,
    "lon": 13.5386
  },
  {
    "country": "AT",
    "code": "9623",
    "name": "Bichlhof",
    "state": "Kärnten",
    "stateAbbr": "02",
    "lat": 46.6088,
    "lon": 13.5093
  },
  {
    "country": "AT",
    "code": "9623",
    "name": "Köstendorf",
    "state": "Kärnten",
    "stateAbbr": "02",
    "lat": 46.6167,
    "lon": 13.5
  },
  {
    "country": "AT",
    "code": "9623",
    "name": "Karnitzen",
    "state": "Kärnten",
    "stateAbbr": "02",
    "lat": 46.6088,
    "lon": 13.5093
  },
  {
    "country": "AT",
    "code": "9623",
    "name": "St. Paul an der Gail",
    "state": "Kärnten",
    "stateAbbr": "02",
    "lat": 46.6186,
    "lon": 13.5206
  },
  {
    "country": "AT",
    "code": "9623",
    "name": "Schmölzing",
    "state": "Kärnten",
    "stateAbbr": "02",
    "lat": 46.6088,
    "lon": 13.5093
  },
  {
    "country": "AT",
    "code": "9623",
    "name": "Matschiedl",
    "state": "Kärnten",
    "stateAbbr": "02",
    "lat": 46.63,
    "lon": 13.5414
  },
  {
    "country": "AT",
    "code": "9623",
    "name": "Sussawitsch",
    "state": "Kärnten",
    "stateAbbr": "02",
    "lat": 46.6088,
    "lon": 13.5093
  },
  {
    "country": "AT",
    "code": "9623",
    "name": "Latschach",
    "state": "Kärnten",
    "stateAbbr": "02",
    "lat": 46.6088,
    "lon": 13.5093
  },
  {
    "country": "AT",
    "code": "9623",
    "name": "Pörtschach",
    "state": "Kärnten",
    "stateAbbr": "02",
    "lat": 46.6088,
    "lon": 13.5093
  },
  {
    "country": "AT",
    "code": "9623",
    "name": "Bach",
    "state": "Kärnten",
    "stateAbbr": "02",
    "lat": 46.6088,
    "lon": 13.5093
  },
  {
    "country": "AT",
    "code": "9624",
    "name": "Brugg",
    "state": "Kärnten",
    "stateAbbr": "02",
    "lat": 46.6167,
    "lon": 13.4167
  },
  {
    "country": "AT",
    "code": "9624",
    "name": "Mellweg",
    "state": "Kärnten",
    "stateAbbr": "02",
    "lat": 46.6,
    "lon": 13.45
  },
  {
    "country": "AT",
    "code": "9624",
    "name": "Nampolach",
    "state": "Kärnten",
    "stateAbbr": "02",
    "lat": 46.6,
    "lon": 13.4833
  },
  {
    "country": "AT",
    "code": "9624",
    "name": "Egg",
    "state": "Kärnten",
    "stateAbbr": "02",
    "lat": 46.6144,
    "lon": 13.4086
  },
  {
    "country": "AT",
    "code": "9624",
    "name": "Fritzendorf",
    "state": "Kärnten",
    "stateAbbr": "02",
    "lat": 46.6333,
    "lon": 13.4
  },
  {
    "country": "AT",
    "code": "9624",
    "name": "Süßenberg",
    "state": "Kärnten",
    "stateAbbr": "02",
    "lat": 46.6287,
    "lon": 13.4484
  },
  {
    "country": "AT",
    "code": "9624",
    "name": "Latschach",
    "state": "Kärnten",
    "stateAbbr": "02",
    "lat": 46.6,
    "lon": 13.4667
  },
  {
    "country": "AT",
    "code": "9624",
    "name": "Mellach",
    "state": "Kärnten",
    "stateAbbr": "02",
    "lat": 46.6167,
    "lon": 13.4167
  },
  {
    "country": "AT",
    "code": "9624",
    "name": "Micheldorf",
    "state": "Kärnten",
    "stateAbbr": "02",
    "lat": 46.6167,
    "lon": 13.4
  },
  {
    "country": "AT",
    "code": "9624",
    "name": "Kreuth ob Mellweg",
    "state": "Kärnten",
    "stateAbbr": "02",
    "lat": 46.6287,
    "lon": 13.4484
  },
  {
    "country": "AT",
    "code": "9624",
    "name": "Paßriach",
    "state": "Kärnten",
    "stateAbbr": "02",
    "lat": 46.6167,
    "lon": 13.45
  },
  {
    "country": "AT",
    "code": "9624",
    "name": "Potschach",
    "state": "Kärnten",
    "stateAbbr": "02",
    "lat": 46.6287,
    "lon": 13.4484
  },
  {
    "country": "AT",
    "code": "9624",
    "name": "Götzing",
    "state": "Kärnten",
    "stateAbbr": "02",
    "lat": 46.6167,
    "lon": 13.4167
  },
  {
    "country": "AT",
    "code": "9624",
    "name": "Dellach",
    "state": "Kärnten",
    "stateAbbr": "02",
    "lat": 46.6093,
    "lon": 13.3443
  },
  {
    "country": "AT",
    "code": "9631",
    "name": "Kleinbergl",
    "state": "Kärnten",
    "stateAbbr": "02",
    "lat": 46.6358,
    "lon": 13.2722
  },
  {
    "country": "AT",
    "code": "9631",
    "name": "Schimanberg",
    "state": "Kärnten",
    "stateAbbr": "02",
    "lat": 46.6391,
    "lon": 13.1658
  },
  {
    "country": "AT",
    "code": "9631",
    "name": "Tröpolach",
    "state": "Kärnten",
    "stateAbbr": "02",
    "lat": 46.6128,
    "lon": 13.2756
  },
  {
    "country": "AT",
    "code": "9631",
    "name": "Waidegg",
    "state": "Kärnten",
    "stateAbbr": "02",
    "lat": 46.6391,
    "lon": 13.1658
  },
  {
    "country": "AT",
    "code": "9631",
    "name": "Rattendorf",
    "state": "Kärnten",
    "stateAbbr": "02",
    "lat": 46.6207,
    "lon": 13.2538
  },
  {
    "country": "AT",
    "code": "9631",
    "name": "Tramun",
    "state": "Kärnten",
    "stateAbbr": "02",
    "lat": 46.6391,
    "lon": 13.1658
  },
  {
    "country": "AT",
    "code": "9631",
    "name": "Achleiten",
    "state": "Kärnten",
    "stateAbbr": "02",
    "lat": 46.6194,
    "lon": 13.2675
  },
  {
    "country": "AT",
    "code": "9631",
    "name": "Anraun",
    "state": "Kärnten",
    "stateAbbr": "02",
    "lat": 46.6391,
    "lon": 13.1658
  },
  {
    "country": "AT",
    "code": "9631",
    "name": "Jenig",
    "state": "Kärnten",
    "stateAbbr": "02",
    "lat": 46.6277,
    "lon": 13.2527
  },
  {
    "country": "AT",
    "code": "9631",
    "name": "Danz",
    "state": "Kärnten",
    "stateAbbr": "02",
    "lat": 46.6194,
    "lon": 13.2675
  },
  {
    "country": "AT",
    "code": "9631",
    "name": "Schlanitzen",
    "state": "Kärnten",
    "stateAbbr": "02",
    "lat": 46.6,
    "lon": 13.2833
  },
  {
    "country": "AT",
    "code": "9631",
    "name": "Schmidt",
    "state": "Kärnten",
    "stateAbbr": "02",
    "lat": 46.6194,
    "lon": 13.2675
  },
  {
    "country": "AT",
    "code": "9631",
    "name": "Kreuth ob Rattendorf",
    "state": "Kärnten",
    "stateAbbr": "02",
    "lat": 46.6194,
    "lon": 13.2675
  },
  {
    "country": "AT",
    "code": "9632",
    "name": "Oberdöbernitzen",
    "state": "Kärnten",
    "stateAbbr": "02",
    "lat": 46.6335,
    "lon": 13.1765
  },
  {
    "country": "AT",
    "code": "9632",
    "name": "Staudachberg",
    "state": "Kärnten",
    "stateAbbr": "02",
    "lat": 46.6408,
    "lon": 13.1938
  },
  {
    "country": "AT",
    "code": "9632",
    "name": "Kirchbach",
    "state": "Kärnten",
    "stateAbbr": "02",
    "lat": 46.6416,
    "lon": 13.1845
  },
  {
    "country": "AT",
    "code": "9632",
    "name": "Krieben",
    "state": "Kärnten",
    "stateAbbr": "02",
    "lat": 46.6408,
    "lon": 13.1938
  },
  {
    "country": "AT",
    "code": "9632",
    "name": "Stöfflerberg",
    "state": "Kärnten",
    "stateAbbr": "02",
    "lat": 46.6503,
    "lon": 13.194
  },
  {
    "country": "AT",
    "code": "9632",
    "name": "Wassertheurerberg",
    "state": "Kärnten",
    "stateAbbr": "02",
    "lat": 46.6408,
    "lon": 13.1938
  },
  {
    "country": "AT",
    "code": "9632",
    "name": "Unterdöbernitzen",
    "state": "Kärnten",
    "stateAbbr": "02",
    "lat": 46.6299,
    "lon": 13.1907
  },
  {
    "country": "AT",
    "code": "9632",
    "name": "Treßdorf",
    "state": "Kärnten",
    "stateAbbr": "02",
    "lat": 46.6399,
    "lon": 13.1972
  },
  {
    "country": "AT",
    "code": "9632",
    "name": "Hochwart",
    "state": "Kärnten",
    "stateAbbr": "02",
    "lat": 46.6495,
    "lon": 13.2199
  },
  {
    "country": "AT",
    "code": "9633",
    "name": "Schönboden",
    "state": "Kärnten",
    "stateAbbr": "02",
    "lat": 46.6316,
    "lon": 13.151
  },
  {
    "country": "AT",
    "code": "9633",
    "name": "Unterbuchach",
    "state": "Kärnten",
    "stateAbbr": "02",
    "lat": 46.6278,
    "lon": 13.1415
  },
  {
    "country": "AT",
    "code": "9633",
    "name": "Reißkofelbad",
    "state": "Kärnten",
    "stateAbbr": "02",
    "lat": 46.6316,
    "lon": 13.151
  },
  {
    "country": "AT",
    "code": "9633",
    "name": "Stranig",
    "state": "Kärnten",
    "stateAbbr": "02",
    "lat": 46.6355,
    "lon": 13.1605
  },
  {
    "country": "AT",
    "code": "9633",
    "name": "Rinsenegg",
    "state": "Kärnten",
    "stateAbbr": "02",
    "lat": 46.6316,
    "lon": 13.151
  },
  {
    "country": "AT",
    "code": "9633",
    "name": "Forst",
    "state": "Kärnten",
    "stateAbbr": "02",
    "lat": 46.6316,
    "lon": 13.151
  },
  {
    "country": "AT",
    "code": "9633",
    "name": "Reisach",
    "state": "Kärnten",
    "stateAbbr": "02",
    "lat": 46.6316,
    "lon": 13.151
  },
  {
    "country": "AT",
    "code": "9634",
    "name": "Gundersheim",
    "state": "Kärnten",
    "stateAbbr": "02",
    "lat": 46.6473,
    "lon": 13.1214
  },
  {
    "country": "AT",
    "code": "9634",
    "name": "Grafendorf",
    "state": "Kärnten",
    "stateAbbr": "02",
    "lat": 46.6584,
    "lon": 13.1136
  },
  {
    "country": "AT",
    "code": "9634",
    "name": "Goderschach",
    "state": "Kärnten",
    "stateAbbr": "02",
    "lat": 46.6359,
    "lon": 13.1419
  },
  {
    "country": "AT",
    "code": "9634",
    "name": "Griminitzen",
    "state": "Kärnten",
    "stateAbbr": "02",
    "lat": 46.6433,
    "lon": 13.115
  },
  {
    "country": "AT",
    "code": "9634",
    "name": "Oberbuchach",
    "state": "Kärnten",
    "stateAbbr": "02",
    "lat": 46.6315,
    "lon": 13.1157
  },
  {
    "country": "AT",
    "code": "9634",
    "name": "Bodenmühl",
    "state": "Kärnten",
    "stateAbbr": "02",
    "lat": 46.6391,
    "lon": 13.1658
  },
  {
    "country": "AT",
    "code": "9634",
    "name": "Schmalzgrube",
    "state": "Kärnten",
    "stateAbbr": "02",
    "lat": 46.6391,
    "lon": 13.1658
  },
  {
    "country": "AT",
    "code": "9634",
    "name": "Lenzhof",
    "state": "Kärnten",
    "stateAbbr": "02",
    "lat": 46.6391,
    "lon": 13.1658
  },
  {
    "country": "AT",
    "code": "9634",
    "name": "Katlingberg",
    "state": "Kärnten",
    "stateAbbr": "02",
    "lat": 46.6391,
    "lon": 13.1658
  },
  {
    "country": "AT",
    "code": "9634",
    "name": "Rauth",
    "state": "Kärnten",
    "stateAbbr": "02",
    "lat": 46.6391,
    "lon": 13.1658
  },
  {
    "country": "AT",
    "code": "9634",
    "name": "Welzberg",
    "state": "Kärnten",
    "stateAbbr": "02",
    "lat": 46.6391,
    "lon": 13.1658
  },
  {
    "country": "AT",
    "code": "9635",
    "name": "Monsell",
    "state": "Kärnten",
    "stateAbbr": "02",
    "lat": 46.6599,
    "lon": 13.0679
  },
  {
    "country": "AT",
    "code": "9635",
    "name": "Weidenburg",
    "state": "Kärnten",
    "stateAbbr": "02",
    "lat": 46.6475,
    "lon": 13.0333
  },
  {
    "country": "AT",
    "code": "9635",
    "name": "Rüben",
    "state": "Kärnten",
    "stateAbbr": "02",
    "lat": 46.6599,
    "lon": 13.0679
  },
  {
    "country": "AT",
    "code": "9635",
    "name": "Dellach",
    "state": "Kärnten",
    "stateAbbr": "02",
    "lat": 46.6617,
    "lon": 13.0797
  },
  {
    "country": "AT",
    "code": "9635",
    "name": "Wieserberg",
    "state": "Kärnten",
    "stateAbbr": "02",
    "lat": 46.6599,
    "lon": 13.0679
  },
  {
    "country": "AT",
    "code": "9635",
    "name": "Stollwitz",
    "state": "Kärnten",
    "stateAbbr": "02",
    "lat": 46.6705,
    "lon": 13.0494
  },
  {
    "country": "AT",
    "code": "9635",
    "name": "Gratzhof",
    "state": "Kärnten",
    "stateAbbr": "02",
    "lat": 46.6599,
    "lon": 13.0679
  },
  {
    "country": "AT",
    "code": "9635",
    "name": "Leifling",
    "state": "Kärnten",
    "stateAbbr": "02",
    "lat": 46.6667,
    "lon": 13.1
  },
  {
    "country": "AT",
    "code": "9635",
    "name": "Gurina",
    "state": "Kärnten",
    "stateAbbr": "02",
    "lat": 46.6599,
    "lon": 13.0679
  },
  {
    "country": "AT",
    "code": "9635",
    "name": "Nölbling",
    "state": "Kärnten",
    "stateAbbr": "02",
    "lat": 46.6461,
    "lon": 13.0867
  },
  {
    "country": "AT",
    "code": "9635",
    "name": "Kronhof",
    "state": "Kärnten",
    "stateAbbr": "02",
    "lat": 46.65,
    "lon": 13.0667
  },
  {
    "country": "AT",
    "code": "9635",
    "name": "St. Daniel",
    "state": "Kärnten",
    "stateAbbr": "02",
    "lat": 46.6625,
    "lon": 13.0575
  },
  {
    "country": "AT",
    "code": "9635",
    "name": "Goldberg",
    "state": "Kärnten",
    "stateAbbr": "02",
    "lat": 46.6744,
    "lon": 13.0703
  },
  {
    "country": "AT",
    "code": "9640",
    "name": "Gailberg",
    "state": "Kärnten",
    "stateAbbr": "02",
    "lat": 46.6581,
    "lon": 12.977
  },
  {
    "country": "AT",
    "code": "9640",
    "name": "Mahlbach",
    "state": "Kärnten",
    "stateAbbr": "02",
    "lat": 46.7094,
    "lon": 13.0116
  },
  {
    "country": "AT",
    "code": "9640",
    "name": "Passau",
    "state": "Kärnten",
    "stateAbbr": "02",
    "lat": 46.6581,
    "lon": 12.977
  },
  {
    "country": "AT",
    "code": "9640",
    "name": "Kreuth",
    "state": "Kärnten",
    "stateAbbr": "02",
    "lat": 46.6822,
    "lon": 12.9856
  },
  {
    "country": "AT",
    "code": "9640",
    "name": "Plon",
    "state": "Kärnten",
    "stateAbbr": "02",
    "lat": 46.6581,
    "lon": 12.977
  },
  {
    "country": "AT",
    "code": "9640",
    "name": "Nischlwitz",
    "state": "Kärnten",
    "stateAbbr": "02",
    "lat": 46.7094,
    "lon": 13.0116
  },
  {
    "country": "AT",
    "code": "9640",
    "name": "Kreuzberg",
    "state": "Kärnten",
    "stateAbbr": "02",
    "lat": 46.6581,
    "lon": 12.977
  },
  {
    "country": "AT",
    "code": "9640",
    "name": "Buchach",
    "state": "Kärnten",
    "stateAbbr": "02",
    "lat": 46.7094,
    "lon": 13.0116
  },
  {
    "country": "AT",
    "code": "9640",
    "name": "Sittmoos",
    "state": "Kärnten",
    "stateAbbr": "02",
    "lat": 46.6833,
    "lon": 12.9333
  },
  {
    "country": "AT",
    "code": "9640",
    "name": "Dobra",
    "state": "Kärnten",
    "stateAbbr": "02",
    "lat": 46.7,
    "lon": 13
  },