[
  {
    "country": "DE",
    "code": "01945",
    "name": "Hohenbocka",
    "state": "Brandenburg",
    "stateAbbr": "BB",
    "lat": 51.4333,
    "lon": 14
  },
  {
    "country": "DE",
    "code": "01945",
    "name": "Grünewald",
    "state": "Brandenburg",
    "stateAbbr": "BB",
    "lat": 51.4,
    "lon": 14
  },
  {
    "country": "DE",
    "code": "01945",
    "name": "Schwarzbach",
    "state": "Brandenburg",
    "stateAbbr": "BB",
    "lat": 51.45,
    "lon": 13.9333
  },
  {
    "country": "DE",
    "code": "01945",
    "name": "Tettau",
    "state": "Brandenburg",
    "stateAbbr": "BB",
    "lat": 51.4333,
    "lon": 13.7333
  },
  {
    "country": "DE",
    "code": "01945",
    "name": "Hermsdorf",
    "state": "Brandenburg",
    "stateAbbr": "BB",
    "lat": 51.4167,
    "lon": 13.9
  },
  {
    "country": "DE",
    "code": "01945",
    "name": "Kroppen",
    "state": "Brandenburg",
    "stateAbbr": "BB",
    "lat": 51.3833,
    "lon": 13.8
  },
  {
    "country": "DE",
    "code": "01945",
    "name": "Guteborn",
    "state": "Brandenburg",
    "stateAbbr": "BB",
    "lat": 51.4167,
    "lon": 13.9333
  },
  {
    "country": "DE",
    "code": "01945",
    "name": "Lindenau",
    "state": "Brandenburg",
    "stateAbbr": "BB",
    "lat": 51.4,
    "lon": 13.7333
  },
  {
    "country": "DE",
    "code": "01945",
    "name": "Ruhland",
    "state": "Brandenburg",
    "stateAbbr": "BB",
    "lat": 51.4667,
    "lon": 13.8667
  },
  {
    "country": "DE",
    "code": "01968",
    "name": "Schipkau",
    "state": "Brandenburg",
    "stateAbbr": "BB",
    "lat": 51.5456,
    "lon": 13.9121
  },
  {
    "country": "DE",
    "code": "01968",
    "name": "Schipkau Hörlitz",
    "state": "Brandenburg",
    "stateAbbr": "BB",
    "lat": 51.5299,
    "lon": 13.9508
  },
  {
    "country": "DE",
    "code": "01968",
    "name": "Senftenberg",
    "state": "Brandenburg",
    "stateAbbr": "BB",
    "lat": 51.5195,
    "lon": 14.0007
  },
  {
    "country": "DE",
    "code": "01979",
    "name": "Lauchhammer",
    "state": "Brandenburg",
    "stateAbbr": "BB",
    "lat": 51.5,
    "lon": 13.7667
  },
  {
    "country": "DE",
    "code": "01983",
    "name": "Großräschen",
    "state": "Brandenburg",
    "stateAbbr": "BB",
    "lat": 51.5833,
    "lon": 14
  },
  {
    "country": "DE",
    "code": "01983",
    "name": "Neu-Seeland",
    "state": "Brandenburg",
    "stateAbbr": "BB",
    "lat": 51.6214,
    "lon": 14.1309
  },
  {
    "country": "DE",
    "code": "01987",
    "name": "Schwarzheide",
    "state": "Brandenburg",
    "stateAbbr": "BB",
    "lat": 51.4653,
    "lon": 13.868
  },
  {
    "country": "DE",
    "code": "01990",
    "name": "Frauendorf",
    "state": "Brandenburg",
    "stateAbbr": "BB",
    "lat": 51.4167,
    "lon": 13.7667
  },
  {
    "country": "DE",
    "code": "01990",
    "name": "Großkmehlen",
    "state": "Brandenburg",
    "stateAbbr": "BB",
    "lat": 51.3833,
    "lon": 13.7333
  },
  {
    "country": "DE",
    "code": "01990",
    "name": "Ortrand",
    "state": "Brandenburg",
    "stateAbbr": "BB",
    "lat": 51.3767,
    "lon": 13.745
  },
  {
    "country": "DE",
    "code": "01993",
    "name": "Schipkau",
    "state": "Brandenburg",
    "stateAbbr": "BB",
    "lat": 51.5456,
    "lon": 13.9121
  },
  {
    "country": "DE",
    "code": "01993",
    "name": "Schipkau Schipkau",
    "state": "Brandenburg",
    "stateAbbr": "BB",
    "lat": 51.5101,
    "lon": 13.8981
  },
  {
    "country": "DE",
    "code": "01994",
    "name": "Schipkau Drochow",
    "state": "Brandenburg",
    "stateAbbr": "BB",
    "lat": 51.5693,
    "lon": 13.9237
  },
  {
    "country": "DE",
    "code": "01994",
    "name": "Schipkau Annahütte, Annahütte-Siedlung",
    "state": "Brandenburg",
    "stateAbbr": "BB",
    "lat": 51.5623,
    "lon": 13.8742
  },
  {
    "country": "DE",
    "code": "01994",
    "name": "Schipkau Meuro",
    "state": "Brandenburg",
    "stateAbbr": "BB",
    "lat": 51.5504,
    "lon": 13.9244
  },
  {
    "country": "DE",
    "code": "01994",
    "name": "Schipkau",
    "state": "Brandenburg",
    "stateAbbr": "BB",
    "lat": 51.5456,
    "lon": 13.9121
  },
  {
    "country": "DE",
    "code": "01994",
    "name": "Schipkau Annahütte, Annahütte",
    "state": "Brandenburg",
    "stateAbbr": "BB",
    "lat": 51.5632,
    "lon": 13.8955
  },
  {
    "country": "DE",
    "code": "01994",
    "name": "Schipkau Annahütte, Karl-Marx-Siedlung",
    "state": "Brandenburg",
    "stateAbbr": "BB",
    "lat": 51.5641,
    "lon": 13.8692
  },
  {
    "country": "DE",
    "code": "01994",
    "name": "Schipkau Annahütte",
    "state": "Brandenburg",
    "stateAbbr": "BB",
    "lat": 51.5614,
    "lon": 13.882
  },
  {
    "country": "DE",
    "code": "01994",
    "name": "Schipkau Annahütte, Herrnnmühle",
    "state": "Brandenburg",
    "stateAbbr": "BB",
    "lat": 51.5558,
    "lon": 13.8891
  },
  {
    "country": "DE",
    "code": "01996",
    "name": "Hosena",
    "state": "Brandenburg",
    "stateAbbr": "BB",
    "lat": 51.4534,
    "lon": 14.0298
  },
  {
    "country": "DE",
    "code": "01998",
    "name": "Schipkau Klettwitz",
    "state": "Brandenburg",
    "stateAbbr": "BB",
    "lat": 51.5422,
    "lon": 13.8994
  },
  {
    "country": "DE",
    "code": "01998",
    "name": "Schipkau Meuro",
    "state": "Brandenburg",
    "stateAbbr": "BB",
    "lat": 51.5504,
    "lon": 13.9244
  },
  {
    "country": "DE",
    "code": "01998",
    "name": "Schipkau",
    "state": "Brandenburg",
    "stateAbbr": "BB",
    "lat": 51.5456,
    "lon": 13.9121
  },
  {
    "country": "DE",
    "code": "03042",
    "name": "Cottbus",
    "state": "Brandenburg",
    "stateAbbr": "BB",
    "lat": 51.7612,
    "lon": 14.3544
  },
  {
    "country": "DE",
    "code": "03044",
    "name": "Cottbus",
    "state": "Brandenburg",
    "stateAbbr": "BB",
    "lat": 51.7754,
    "lon": 14.3374
  },
  {
    "country": "DE",
    "code": "03046",
    "name": "Cottbus",
    "state": "Brandenburg",
    "stateAbbr": "BB",
    "lat": 51.756,
    "lon": 14.3197
  },
  {
    "country": "DE",
    "code": "03048",
    "name": "Cottbus",
    "state": "Brandenburg",
    "stateAbbr": "BB",
    "lat": 51.7403,
    "lon": 14.3198
  },
  {
    "country": "DE",
    "code": "03050",
    "name": "Cottbus",
    "state": "Brandenburg",
    "stateAbbr": "BB",
    "lat": 51.7324,
    "lon": 14.3347
  },
  {
    "country": "DE",
    "code": "03051",
    "name": "Cottbus",
    "state": "Brandenburg",
    "stateAbbr": "BB",
    "lat": 51.7667,
    "lon": 14.3333
  },
  {
    "country": "DE",
    "code": "03052",
    "name": "Cottbus",
    "state": "Brandenburg",
    "stateAbbr": "BB",
    "lat": 51.7667,
    "lon": 14.3333
  },
  {
    "country": "DE",
    "code": "03053",
    "name": "Cottbus",
    "state": "Brandenburg",
    "stateAbbr": "BB",
    "lat": 51.7667,
    "lon": 14.3333
  },
  {
    "country": "DE",
    "code": "03054",
    "name": "Cottbus",
    "state": "Brandenburg",
    "stateAbbr": "BB",
    "lat": 51.7667,
    "lon": 14.3333
  },
  {
    "country": "DE",
    "code": "03055",
    "name": "Cottbus",
    "state": "Brandenburg",
    "stateAbbr": "BB",
    "lat": 51.7667,
    "lon": 14.3333
  },
  {
    "country": "DE",
    "code": "03058",
    "name": "Groß Döbbern",
    "state": "Brandenburg",
    "stateAbbr": "BB",
    "lat": 51.65,
    "lon": 14.3333
  },
  {
    "country": "DE",
    "code": "03058",
    "name": "Laubsdorf",
    "state": "Brandenburg",
    "stateAbbr": "BB",
    "lat": 51.6667,
    "lon": 14.45
  },
  {
    "country": "DE",
    "code": "03058",
    "name": "Groß Oßnig",
    "state": "Brandenburg",
    "stateAbbr": "BB",
    "lat": 51.6833,
    "lon": 14.3667
  },
  {
    "country": "DE",
    "code": "03058",
    "name": "Klein Döbbern",
    "state": "Brandenburg",
    "stateAbbr": "BB",
    "lat": 51.6667,
    "lon": 14.35
  },
  {
    "country": "DE",
    "code": "03058",
    "name": "Koppatz",
    "state": "Brandenburg",
    "stateAbbr": "BB",
    "lat": 51.7,
    "lon": 14.4333
  },
  {
    "country": "DE",
    "code": "03058",
    "name": "Roggosen",
    "state": "Brandenburg",
    "stateAbbr": "BB",
    "lat": 51.7,
    "lon": 14.4667
  },
  {
    "country": "DE",
    "code": "03058",
    "name": "Frauendorf",
    "state": "Brandenburg",
    "stateAbbr": "BB",
    "lat": 51.7,
    "lon": 14.3833
  },
  {
    "country": "DE",
    "code": "03058",
    "name": "Gablenz",
    "state": "Brandenburg",
    "stateAbbr": "BB",
    "lat": 51.6833,
    "lon": 14.5167
  },
  {
    "country": "DE",
    "code": "03058",
    "name": "Kathlow",
    "state": "Brandenburg",
    "stateAbbr": "BB",
    "lat": 51.7167,
    "lon": 14.4833
  },
  {
    "country": "DE",
    "code": "03058",
    "name": "Kiekebusch",
    "state": "Brandenburg",
    "stateAbbr": "BB",
    "lat": 51.7167,
    "lon": 14.3667
  },
  {
    "country": "DE",
    "code": "03058",
    "name": "Groß Gaglow",
    "state": "Brandenburg",
    "stateAbbr": "BB",
    "lat": 51.7167,
    "lon": 14.3333
  },
  {
    "country": "DE",
    "code": "03058",
    "name": "Gallinchen",
    "state": "Brandenburg",
    "stateAbbr": "BB",
    "lat": 51.7167,
    "lon": 14.35
  },
  {
    "country": "DE",
    "code": "03058",
    "name": "Sergen",
    "state": "Brandenburg",
    "stateAbbr": "BB",
    "lat": 51.7,
    "lon": 14.5167
  },
  {
    "country": "DE",
    "code": "03058",
    "name": "Haasow",
    "state": "Brandenburg",
    "stateAbbr": "BB",
    "lat": 51.7333,
    "lon": 14.4167
  },
  {
    "country": "DE",
    "code": "03058",
    "name": "Neuhausen",
    "state": "Brandenburg",
    "stateAbbr": "BB",
    "lat": 51.6833,
    "lon": 14.4167
  },
  {
    "country": "DE",
    "code": "03058",
    "name": "Komptendorf",
    "state": "Brandenburg",
    "stateAbbr": "BB",
    "lat": 51.6833,
    "lon": 14.4833
  },
  {
    "country": "DE",
    "code": "03096",
    "name": "Werben",
    "state": "Brandenburg",
    "stateAbbr": "BB",
    "lat": 51.8167,
    "lon": 14.1833
  },
  {
    "country": "DE",
    "code": "03096",
    "name": "Burg (Spreewald)",
    "state": "Brandenburg",
    "stateAbbr": "BB",
    "lat": 51.8333,
    "lon": 14.15
  },
  {
    "country": "DE",
    "code": "03096",
    "name": "Dissen-Striesow",
    "state": "Brandenburg",
    "stateAbbr": "BB",
    "lat": 51.825,
    "lon": 14.2833
  },
  {
    "country": "DE",
    "code": "03096",
    "name": "Guhrow",
    "state": "Brandenburg",
    "stateAbbr": "BB",
    "lat": 51.8167,
    "lon": 14.2333
  },
  {
    "country": "DE",
    "code": "03096",
    "name": "Schmogrow-Fehrow",
    "state": "Brandenburg",
    "stateAbbr": "BB",
    "lat": 51.85,
    "lon": 14.2333
  },
  {
    "country": "DE",
    "code": "03096",
    "name": "Briesen",
    "state": "Brandenburg",
    "stateAbbr": "BB",
    "lat": 51.8167,
    "lon": 14.25
  },
  {
    "country": "DE",
    "code": "03099",
    "name": "Kolkwitz",
    "state": "Brandenburg",
    "stateAbbr": "BB",
    "lat": 51.75,
    "lon": 14.25
  },
  {
    "country": "DE",
    "code": "03103",
    "name": "Neu-Seeland",
    "state": "Brandenburg",
    "stateAbbr": "BB",
    "lat": 51.6214,
    "lon": 14.1309
  },
  {
    "country": "DE",
    "code": "03103",
    "name": "Neupetershain",
    "state": "Brandenburg",
    "stateAbbr": "BB",
    "lat": 51.6,
    "lon": 14.1667
  },
  {
    "country": "DE",
    "code": "03116",
    "name": "Drebkau",
    "state": "Brandenburg",
    "stateAbbr": "BB",
    "lat": 51.65,
    "lon": 14.2167
  },
  {
    "country": "DE",
    "code": "03119",
    "name": "Welzow",
    "state": "Brandenburg",
    "stateAbbr": "BB",
    "lat": 51.5667,
    "lon": 14.1833
  },
  {
    "country": "DE",
    "code": "03130",
    "name": "Reuthen",
    "state": "Brandenburg",
    "stateAbbr": "BB",
    "lat": 51.6,
    "lon": 14.5333
  },
  {
    "country": "DE",
    "code": "03130",
    "name": "Hornow-Wadelsdorf",
    "state": "Brandenburg",
    "stateAbbr": "BB",
    "lat": 51.625,
    "lon": 14.4917
  },
  {
    "country": "DE",
    "code": "03130",
    "name": "Türkendorf",
    "state": "Brandenburg",
    "stateAbbr": "BB",
    "lat": 51.6,
    "lon": 14.4667
  },
  {
    "country": "DE",
    "code": "03130",
    "name": "Graustein",
    "state": "Brandenburg",
    "stateAbbr": "BB",
    "lat": 51.5667,
    "lon": 14.4833
  },
  {
    "country": "DE",
    "code": "03130",
    "name": "Drieschnitz-Kahsel",
    "state": "Brandenburg",
    "stateAbbr": "BB",
    "lat": 51.6667,
    "lon": 14.475
  },
  {
    "country": "DE",
    "code": "03130",
    "name": "Lieskau",
    "state": "Brandenburg",
    "stateAbbr": "BB",
    "lat": 51.5667,
    "lon": 14.5333
  },
  {
    "country": "DE",
    "code": "03130",
    "name": "Haidemühl",
    "state": "Brandenburg",
    "stateAbbr": "BB",
    "lat": 51.55,
    "lon": 14.2167
  },
  {
    "country": "DE",
    "code": "03130",
    "name": "Felixsee",
    "state": "Brandenburg",
    "stateAbbr": "BB",
    "lat": 51.6083,
    "lon": 14.5208
  },
  {
    "country": "DE",
    "code": "03130",
    "name": "Proschim",
    "state": "Brandenburg",
    "stateAbbr": "BB",
    "lat": 51.55,
    "lon": 14.2
  },
  {
    "country": "DE",
    "code": "03130",
    "name": "Wolfshain",
    "state": "Brandenburg",
    "stateAbbr": "BB",
    "lat": 51.5833,
    "lon": 14.5833
  },
  {
    "country": "DE",
    "code": "03130",
    "name": "Bagenz",
    "state": "Brandenburg",
    "stateAbbr": "BB",
    "lat": 51.65,
    "lon": 14.4333
  },
  {
    "country": "DE",
    "code": "03130",
    "name": "Jämlitz-Klein Düben",
    "state": "Brandenburg",
    "stateAbbr": "BB",
    "lat": 51.5667,
    "lon": 14.6417
  },
  {
    "country": "DE",
    "code": "03130",
    "name": "Tschernitz",
    "state": "Brandenburg",
    "stateAbbr": "BB",
    "lat": 51.5833,
    "lon": 14.6167
  },
  {
    "country": "DE",
    "code": "03130",
    "name": "Spremberg",
    "state": "Brandenburg",
    "stateAbbr": "BB",
    "lat": 51.5713,
    "lon": 14.3699
  },
  {
    "country": "DE",
    "code": "03130",
    "name": "Groß Luja",
    "state": "Brandenburg",
    "stateAbbr": "BB",
    "lat": 51.6,
    "lon": 14.45
  },
  {
    "country": "DE",
    "code": "03139",
    "name": "Terpe",
    "state": "Brandenburg",
    "stateAbbr": "BB",
    "lat": 51.5667,
    "lon": 14.3667
  },
  {
    "country": "DE",
    "code": "03149",
    "name": "Groß Schacksdorf-Simmersdorf",
    "state": "Brandenburg",
    "stateAbbr": "BB",
    "lat": 51.7,
    "lon": 14.625
  },
  {
    "country": "DE",
    "code": "03149",
    "name": "Wiesengrund",
    "state": "Brandenburg",
    "stateAbbr": "BB",
    "lat": 51.6967,
    "lon": 14.5533
  },
  {
    "country": "DE",
    "code": "03149",
    "name": "Forst (Lausitz)",
    "state": "Brandenburg",
    "stateAbbr": "BB",
    "lat": 51.7302,
    "lon": 14.598
  },
  {
    "country": "DE",
    "code": "03159",
    "name": "Döbern",
    "state": "Brandenburg",
    "stateAbbr": "BB",
    "lat": 51.6167,
    "lon": 14.6
  },
  {
    "country": "DE",
    "code": "03159",
    "name": "Neiße-Malxetal",
    "state": "Brandenburg",
    "stateAbbr": "BB",
    "lat": 51.6433,
    "lon": 14.63
  },
  {
    "country": "DE",
    "code": "03159",
    "name": "Wiesengrund",
    "state": "Brandenburg",
    "stateAbbr": "BB",
    "lat": 51.6967,
    "lon": 14.5533
  },
  {
    "country": "DE",
    "code": "03172",
    "name": "Bärenklau",
    "state": "Brandenburg",
    "stateAbbr": "BB",
    "lat": 51.9333,
    "lon": 14.5667
  },
  {
    "country": "DE",
    "code": "03172",
    "name": "Pinnow-Heideland",
    "state": "Brandenburg",
    "stateAbbr": "BB",
    "lat": 51.9833,
    "lon": 14.5333
  },
  {
    "country": "DE",
    "code": "03172",
    "name": "Atterwasch",
    "state": "Brandenburg",
    "stateAbbr": "BB",
    "lat": 51.9333,
    "lon": 14.6333
  },
  {
    "country": "DE",
    "code": "03172",
    "name": "Lutzketal",
    "state": "Brandenburg",
    "stateAbbr": "BB",
    "lat": 51.9833,
    "lon": 14.6238
  },
  {
    "country": "DE",
    "code": "03172",
    "name": "Grießen",
    "state": "Brandenburg",
    "stateAbbr": "BB",
    "lat": 51.85,
    "lon": 14.6
  },
  {
    "country": "DE",
    "code": "03172",
    "name": "Gastrose-Kerkwitz",
    "state": "Brandenburg",
    "stateAbbr": "BB",
    "lat": 51.9,
    "lon": 14.65
  },
  {
    "country": "DE",
    "code": "03172",
    "name": "Guben",
    "state": "Brandenburg",
    "stateAbbr": "BB",
    "lat": 51.9537,
    "lon": 14.6757
  },
  {
    "country": "DE",
    "code": "03172",
    "name": "Grabko",
    "state": "Brandenburg",
    "stateAbbr": "BB",
    "lat": 51.9,
    "lon": 14.5833
  },
  {
    "country": "DE",
    "code": "03185",
    "name": "Drachhausen",
    "state": "Brandenburg",
    "stateAbbr": "BB",
    "lat": 51.9,
    "lon": 14.3167
  },
  {
    "country": "DE",
    "code": "03185",
    "name": "Grötsch",
    "state": "Brandenburg",
    "stateAbbr": "BB",
    "lat": 51.7833,
    "lon": 14.5
  },
  {
    "country": "DE",
    "code": "03185",
    "name": "Drehnow",
    "state": "Brandenburg",
    "stateAbbr": "BB",
    "lat": 51.8667,
    "lon": 14.3667
  },
  {
    "country": "DE",
    "code": "03185",
    "name": "Turnow-Preilack",
    "state": "Brandenburg",
    "stateAbbr": "BB",
    "lat": 51.875,
    "lon": 14.4083
  },
  {
    "country": "DE",
    "code": "03185",
    "name": "Tauer",
    "state": "Brandenburg",
    "stateAbbr": "BB",
    "lat": 51.9,
    "lon": 14.45
  },
  {
    "country": "DE",
    "code": "03185",
    "name": "Heinersbrück",
    "state": "Brandenburg",
    "stateAbbr": "BB",
    "lat": 51.8333,
    "lon": 14.5
  },
  {
    "country": "DE",
    "code": "03185",
    "name": "Teichland",
    "state": "Brandenburg",
    "stateAbbr": "BB",
    "lat": 51.8056,
    "lon": 14.4444
  },
  {
    "country": "DE",
    "code": "03185",
    "name": "Peitz",
    "state": "Brandenburg",
    "stateAbbr": "BB",
    "lat": 51.8832,
    "lon": 14.4138
  },
  {
    "country": "DE",
    "code": "03197",
    "name": "Jänschwalde",
    "state": "Brandenburg",
    "stateAbbr": "BB",
    "lat": 51.8667,
    "lon": 14.5
  },
  {
    "country": "DE",
    "code": "03197",
    "name": "Drewitz",
    "state": "Brandenburg",
    "stateAbbr": "BB",
    "lat": 51.9,
    "lon": 14.5167
  },
  {
    "country": "DE",
    "code": "03202",
    "name": "Luckow-Petershagen",
    "state": "Brandenburg",
    "stateAbbr": "BB",
    "lat": 53.2435,
    "lon": 14.2573
  },
  {
    "country": "DE",
    "code": "03205",
    "name": "Bronkow",
    "state": "Brandenburg",
    "stateAbbr": "BB",
    "lat": 51.6667,
    "lon": 13.9167
  },
  {
    "country": "DE",
    "code": "03205",
    "name": "Ogrosen",
    "state": "Brandenburg",
    "stateAbbr": "BB",
    "lat": 51.7167,
    "lon": 14.05
  },
  {
    "country": "DE",
    "code": "03205",
    "name": "Werchow",
    "state": "Brandenburg",
    "stateAbbr": "BB",
    "lat": 51.7333,
    "lon": 13.95
  },
  {
    "country": "DE",
    "code": "03205",
    "name": "Saßleben",
    "state": "Brandenburg",
    "stateAbbr": "BB",
    "lat": 51.7667,
    "lon": 13.9833
  },
  {
    "country": "DE",
    "code": "03205",
    "name": "Lipten",
    "state": "Brandenburg",
    "stateAbbr": "BB",
    "lat": 51.65,
    "lon": 13.9333
  },
  {
    "country": "DE",
    "code": "03205",
    "name": "Groß-Mehßow",
    "state": "Brandenburg",
    "stateAbbr": "BB",
    "lat": 51.7333,
    "lon": 13.8167
  },
  {
    "country": "DE",
    "code": "03205",
    "name": "Lug",
    "state": "Brandenburg",
    "stateAbbr": "BB",
    "lat": 51.6333,
    "lon": 13.9333
  },
  {
    "country": "DE",
    "code": "03205",
    "name": "Kemmen",
    "state": "Brandenburg",
    "stateAbbr": "BB",
    "lat": 51.7333,
    "lon": 13.9167
  },
  {
    "country": "DE",
    "code": "03205",
    "name": "Bolschwitz",
    "state": "Brandenburg",
    "stateAbbr": "BB",
    "lat": 51.75,
    "lon": 14.0333
  },
  {
    "country": "DE",
    "code": "03205",
    "name": "Calau",
    "state": "Brandenburg",
    "stateAbbr": "BB",
    "lat": 51.7483,
    "lon": 13.9543
  },
  {
    "country": "DE",
    "code": "03205",
    "name": "Mlode",
    "state": "Brandenburg",
    "stateAbbr": "BB",
    "lat": 51.7833,
    "lon": 13.9667
  },
  {
    "country": "DE",
    "code": "03205",
    "name": "Luckaitztal",
    "state": "Brandenburg",
    "stateAbbr": "BB",
    "lat": 51.6833,
    "lon": 14
  },
  {
    "country": "DE",
    "code": "03205",
    "name": "Bischdorf",
    "state": "Brandenburg",
    "stateAbbr": "BB",
    "lat": 51.8,
    "lon": 13.9667
  },
  {
    "country": "DE",
    "code": "03205",
    "name": "Laasow",
    "state": "Brandenburg",
    "stateAbbr": "BB",
    "lat": 51.7167,
    "lon": 14.0833
  },
  {
    "country": "DE",
    "code": "03205",
    "name": "Missen",
    "state": "Brandenburg",
    "stateAbbr": "BB",
    "lat": 51.7333,
    "lon": 14.05
  },
  {
    "country": "DE",
    "code": "03222",
    "name": "Groß-Klessow",
    "state": "Brandenburg",
    "stateAbbr": "BB",
    "lat": 51.8333,
    "lon": 13.95
  },
  {
    "country": "DE",
    "code": "03222",
    "name": "Ragow",
    "state": "Brandenburg",
    "stateAbbr": "BB",
    "lat": 51.8833,
    "lon": 13.9
  },
  {
    "country": "DE",
    "code": "03222",
    "name": "Boblitz",
    "state": "Brandenburg",
    "stateAbbr": "BB",
    "lat": 51.8333,
    "lon": 13.9833
  },
  {
    "country": "DE",
    "code": "03222",
    "name": "Kittlitz",
    "state": "Brandenburg",
    "stateAbbr": "BB",
    "lat": 51.8333,
    "lon": 13.9167
  },
  {
    "country": "DE",
    "code": "03222",
    "name": "Klein Radden",
    "state": "Brandenburg",
    "stateAbbr": "BB",
    "lat": 51.8667,
    "lon": 13.8833
  },
  {
    "country": "DE",
    "code": "03222",
    "name": "Hindenberg",
    "state": "Brandenburg",
    "stateAbbr": "BB",
    "lat": 51.85,
    "lon": 13.85
  },
  {
    "country": "DE",
    "code": "03222",
    "name": "Groß Beuchow",
    "state": "Brandenburg",
    "stateAbbr": "BB",
    "lat": 51.8491,
    "lon": 13.9044
  },
  {
    "country": "DE",
    "code": "03222",
    "name": "Lübbenau/Spreewald",
    "state": "Brandenburg",
    "stateAbbr": "BB",
    "lat": 51.8626,
    "lon": 13.9613
  },
  {
    "country": "DE",
    "code": "03226",
    "name": "Raddusch",
    "state": "Brandenburg",
    "stateAbbr": "BB",
    "lat": 51.8167,
    "lon": 14.0333
  },
  {
    "country": "DE",
    "code": "03226",
    "name": "Vetschau",
    "state": "Brandenburg",
    "stateAbbr": "BB",
    "lat": 51.7833,
    "lon": 14.0667
  },
  {
    "country": "DE",
    "code": "03226",
    "name": "Leipe",
    "state": "Brandenburg",
    "stateAbbr": "BB",
    "lat": 51.85,
    "lon": 14.05
  },
  {
    "country": "DE",
    "code": "03226",
    "name": "Koßwig",
    "state": "Brandenburg",
    "stateAbbr": "BB",
    "lat": 51.7833,
    "lon": 14.0333
  },
  {
    "country": "DE",
    "code": "03226",
    "name": "Suschow",
    "state": "Brandenburg",
    "stateAbbr": "BB",
    "lat": 51.8,
    "lon": 14.1
  },
  {
    "country": "DE",
    "code": "03229",
    "name": "Luckaitztal",
    "state": "Brandenburg",
    "stateAbbr": "BB",
    "lat": 51.6833,
    "lon": 14
  },
  {
    "country": "DE",
    "code": "03229",
    "name": "Altdöbern",
    "state": "Brandenburg",
    "stateAbbr": "BB",
    "lat": 51.65,
    "lon": 14.0333
  },
  {
    "country": "DE",
    "code": "03238",
    "name": "Lieskau",
    "state": "Brandenburg",
    "stateAbbr": "BB",
    "lat": 51.6167,
    "lon": 13.8167
  },
  {
    "country": "DE",
    "code": "03238",
    "name": "Lindthal",
    "state": "Brandenburg",
    "stateAbbr": "BB",
    "lat": 51.6667,
    "lon": 13.7833
  },
  {
    "country": "DE",
    "code": "03238",
    "name": "Gröbitz",
    "state": "Brandenburg",
    "stateAbbr": "BB",
    "lat": 51.6667,
    "lon": 13.7167
  },
  {
    "country": "DE",
    "code": "03238",
    "name": "Göllnitz",
    "state": "Brandenburg",
    "stateAbbr": "BB",
    "lat": 51.6333,
    "lon": 13.8833
  },
  {
    "country": "DE",
    "code": "03238",
    "name": "Gruhno",
    "state": "Brandenburg",
    "stateAbbr": "BB",
    "lat": 51.5667,
    "lon": 13.5167
  },
  {
    "country": "DE",
    "code": "03238",
    "name": "Eichholz-Drößig",
    "state": "Brandenburg",
    "stateAbbr": "BB",
    "lat": 51.6083,
    "lon": 13.6583
  },
  {
    "country": "DE",
    "code": "03238",
    "name": "Schadewitz",
    "state": "Brandenburg",
    "stateAbbr": "BB",
    "lat": 51.5667,
    "lon": 13.4833
  },
  {
    "country": "DE",
    "code": "03238",
    "name": "Dollenchen",
    "state": "Brandenburg",
    "stateAbbr": "BB",
    "lat": 51.6167,
    "lon": 13.8667
  },
  {
    "country": "DE",
    "code": "03238",
    "name": "Ponnsdorf",
    "state": "Brandenburg",
    "stateAbbr": "BB",
    "lat": 51.6667,
    "lon": 13.6833
  },
  {
    "country": "DE",
    "code": "03238",
    "name": "Münchhausen",
    "state": "Brandenburg",
    "stateAbbr": "BB",
    "lat": 51.6667,
    "lon": 13.65
  },
  {
    "country": "DE",
    "code": "03238",
    "name": "Finsterwalde",
    "state": "Brandenburg",
    "stateAbbr": "BB",
    "lat": 51.6276,
    "lon": 13.7151
  },
  {
    "country": "DE",
    "code": "03238",
    "name": "Lindena",
    "state": "Brandenburg",
    "stateAbbr": "BB",
    "lat": 51.6,
    "lon": 13.5333
  },
  {
    "country": "DE",
    "code": "03238",
    "name": "Massen",
    "state": "Brandenburg",
    "stateAbbr": "BB",
    "lat": 51.65,
    "lon": 13.7333
  },
  {
    "country": "DE",
    "code": "03238",
    "name": "Rückersdorf",
    "state": "Brandenburg",
    "stateAbbr": "BB",
    "lat": 51.5833,
    "lon": 13.5667
  },
  {
    "country": "DE",
    "code": "03238",
    "name": "Schacksdorf",
    "state": "Brandenburg",
    "stateAbbr": "BB",
    "lat": 51.6167,
    "lon": 13.7667
  },
  {
    "country": "DE",
    "code": "03238",
    "name": "Sallgast",
    "state": "Brandenburg",
    "stateAbbr": "BB",
    "lat": 51.5833,
    "lon": 13.8667
  },
  {
    "country": "DE",
    "code": "03238",
    "name": "Betten",
    "state": "Brandenburg",
    "stateAbbr": "BB",
    "lat": 51.6333,
    "lon": 13.7667
  },
  {
    "country": "DE",
    "code": "03238",
    "name": "Lugau",
    "state": "Brandenburg",
    "stateAbbr": "BB",
    "lat": 51.6167,
    "lon": 13.5833
  },
  {
    "country": "DE",
    "code": "03238",
    "name": "Staupitz",
    "state": "Brandenburg",
    "stateAbbr": "BB",
    "lat": 51.5333,
    "lon": 13.6667
  },
  {
    "country": "DE",
    "code": "03238",
    "name": "Fischwasser",
    "state": "Brandenburg",
    "stateAbbr": "BB",
    "lat": 51.6,
    "lon": 13.6167
  },
  {
    "country": "DE",
    "code": "03238",
    "name": "Lichterfeld",
    "state": "Brandenburg",
    "stateAbbr": "BB",
    "lat": 51.6,
    "lon": 13.7667
  },
  {
    "country": "DE",
    "code": "03238",
    "name": "Oppelhain",
    "state": "Brandenburg",
    "stateAbbr": "BB",
    "lat": 51.55,
    "lon": 13.6
  },
  {
    "country": "DE",
    "code": "03238",
    "name": "Gorden",
    "state": "Brandenburg",
    "stateAbbr": "BB",
    "lat": 51.5333,
    "lon": 13.6333
  },
  {
    "country": "DE",
    "code": "03246",
    "name": "Crinitz",
    "state": "Brandenburg",
    "stateAbbr": "BB",
    "lat": 51.7333,
    "lon": 13.7667
  },
  {
    "country": "DE",
    "code": "03246",
    "name": "Gahro",
    "state": "Brandenburg",
    "stateAbbr": "BB",
    "lat": 51.7333,
    "lon": 13.7333
  },
  {
    "country": "DE",
    "code": "03246",
    "name": "Babben",
    "state": "Brandenburg",
    "stateAbbr": "BB",
    "lat": 51.7167,
    "lon": 13.7833
  },
  {
    "country": "DE",
    "code": "03249",
    "name": "Goßmar",
    "state": "Brandenburg",
    "stateAbbr": "BB",
    "lat": 51.6833,
    "lon": 13.6833
  },
  {
    "country": "DE",
    "code": "03249",
    "name": "Großkrausnik",
    "state": "Brandenburg",
    "stateAbbr": "BB",
    "lat": 51.7333,
    "lon": 13.6333
  },
  {
    "country": "DE",
    "code": "03249",
    "name": "Zeckerin",
    "state": "Brandenburg",
    "stateAbbr": "BB",
    "lat": 51.7167,
    "lon": 13.6333
  },
  {
    "country": "DE",
    "code": "03249",
    "name": "Breitenau",
    "state": "Brandenburg",
    "stateAbbr": "BB",
    "lat": 51.6833,
    "lon": 13.7167
  },
  {
    "country": "DE",
    "code": "03249",
    "name": "Sonnewalde",
    "state": "Brandenburg",
    "stateAbbr": "BB",
    "lat": 51.7103,
    "lon": 13.6673
  },
  {
    "country": "DE",
    "code": "03249",
    "name": "Pahlsdorf",
    "state": "Brandenburg",
    "stateAbbr": "BB",
    "lat": 51.7167,
    "lon": 13.65
  },
  {
    "country": "DE",
    "code": "03249",
    "name": "Bahren",
    "state": "Brandenburg",
    "stateAbbr": "BB",
    "lat": 51.7,
    "lon": 13.7167
  },
  {
    "country": "DE",
    "code": "03249",
    "name": "Kleinkrausnik",
    "state": "Brandenburg",
    "stateAbbr": "BB",
    "lat": 51.7333,
    "lon": 13.6
  },
  {
    "country": "DE",
    "code": "03253",
    "name": "Werenzhain",
    "state": "Brandenburg",
    "stateAbbr": "BB",
    "lat": 51.65,
    "lon": 13.5333
  },
  {
    "country": "DE",
    "code": "03253",
    "name": "Nexdorf",
    "state": "Brandenburg",
    "stateAbbr": "BB",
    "lat": 51.6333,
    "lon": 13.3667
  },
  {
    "country": "DE",
    "code": "03253",
    "name": "Hennersdorf",
    "state": "Brandenburg",
    "stateAbbr": "BB",
    "lat": 51.6333,
    "lon": 13.6
  },
  {
    "country": "DE",
    "code": "03253",
    "name": "Schilda",
    "state": "Brandenburg",
    "stateAbbr": "BB",
    "lat": 51.6,
    "lon": 13.3833
  },
  {
    "country": "DE",
    "code": "03253",
    "name": "Brenitz",
    "state": "Brandenburg",
    "stateAbbr": "BB",
    "lat": 51.7,
    "lon": 13.6
  },
  {
    "country": "DE",
    "code": "03253",
    "name": "Schönborn",
    "state": "Brandenburg",
    "stateAbbr": "BB",
    "lat": 51.6,
    "lon": 13.5
  },
  {
    "country": "DE",
    "code": "03253",
    "name": "Tröbitz",
    "state": "Brandenburg",
    "stateAbbr": "BB",
    "lat": 51.6,
    "lon": 13.4333
  },
  {
    "country": "DE",
    "code": "03253",
    "name": "Doberlug-Kirchhain",
    "state": "Brandenburg",
    "stateAbbr": "BB",
    "lat": 51.6167,
    "lon": 13.5667
  },
  {
    "country": "DE",
    "code": "03253",
    "name": "Schönewalde",
    "state": "Brandenburg",
    "stateAbbr": "BB",
    "lat": 51.6833,
    "lon": 13.6
  },
  {
    "country": "DE",
    "code": "03253",
    "name": "Dübrichen",
    "state": "Brandenburg",
    "stateAbbr": "BB",
    "lat": 51.6667,
    "lon": 13.4667
  },
  {
    "country": "DE",
    "code": "03253",
    "name": "Friedersdorf",
    "state": "Brandenburg",
    "stateAbbr": "BB",
    "lat": 51.7,
    "lon": 13.5667
  },
  {
    "country": "DE",
    "code": "03253",
    "name": "Frankena",
    "state": "Brandenburg",
    "stateAbbr": "BB",
    "lat": 51.6667,
    "lon": 13.5833
  },
  {
    "country": "DE",
    "code": "03253",
    "name": "Buchhain",
    "state": "Brandenburg",
    "stateAbbr": "BB",
    "lat": 51.65,
    "lon": 13.3833
  },
  {
    "country": "DE",
    "code": "03253",
    "name": "Prießen",
    "state": "Brandenburg",
    "stateAbbr": "BB",
    "lat": 51.6667,
    "lon": 13.4333
  },
  {
    "country": "DE",
    "code": "03253",
    "name": "Arenzhain",
    "state": "Brandenburg",
    "stateAbbr": "BB",
    "lat": 51.6667,
    "lon": 13.5167
  },
  {
    "country": "DE",
    "code": "03253",
    "name": "Trebbus",
    "state": "Brandenburg",
    "stateAbbr": "BB",
    "lat": 51.6667,
    "lon": 13.5167
  },
  {
    "country": "DE",
    "code": "04895",
    "name": "Falkenberg/Elster",
    "state": "Brandenburg",
    "stateAbbr": "BB",
    "lat": 51.5875,
    "lon": 13.2364
  },
  {
    "country": "DE",
    "code": "04910",
    "name": "Haida",
    "state": "Brandenburg",
    "stateAbbr": "BB",
    "lat": 51.4833,
    "lon": 13.4667
  },
  {
    "country": "DE",
    "code": "04910",
    "name": "Elsterwerda",
    "state": "Brandenburg",
    "stateAbbr": "BB",
    "lat": 51.4768,
    "lon": 13.5022
  },
  {
    "country": "DE",
    "code": "04916",
    "name": "Heideeck",
    "state": "Brandenburg",
    "stateAbbr": "BB",
    "lat": 51.8333,
    "lon": 13.2
  },
  {
    "country": "DE",
    "code": "04916",
    "name": "Wildberg",
    "state": "Brandenburg",
    "stateAbbr": "BB",
    "lat": 51.7833,
    "lon": 13.3167
  },
  {
    "country": "DE",
    "code": "04916",
    "name": "Werchau",
    "state": "Brandenburg",
    "stateAbbr": "BB",
    "lat": 51.7833,
    "lon": 13.3333
  },
  {
    "country": "DE",
    "code": "04916",
    "name": "Stolzenhain",
    "state": "Brandenburg",
    "stateAbbr": "BB",
    "lat": 51.85,
    "lon": 13.15
  },
  {
    "country": "DE",
    "code": "04916",
    "name": "Themesgrund",
    "state": "Brandenburg",
    "stateAbbr": "BB",
    "lat": 51.7667,
    "lon": 13.25
  },
  {
    "country": "DE",
    "code": "04916",
    "name": "Herzberg (Elster)",
    "state": "Brandenburg",
    "stateAbbr": "BB",
    "lat": 51.6833,
    "lon": 13.2333
  },
  {
    "country": "DE",
    "code": "04924",
    "name": "Bad Liebenwerda",
    "state": "Brandenburg",
    "stateAbbr": "BB",
    "lat": 51.489,
    "lon": 13.3901
  },
  {
    "country": "DE",
    "code": "04924",
    "name": "Uebigau-Wahrenbrück",
    "state": "Brandenburg",
    "stateAbbr": "BB",
    "lat": 51.5167,
    "lon": 13.3333
  },
  {
    "country": "DE",
    "code": "04928",
    "name": "Plessa",
    "state": "Brandenburg",
    "stateAbbr": "BB",
    "lat": 51.4667,
    "lon": 13.6167
  },
  {
    "country": "DE",
    "code": "04928",
    "name": "Döllingen",
    "state": "Brandenburg",
    "stateAbbr": "BB",
    "lat": 51.4833,
    "lon": 13.5833
  },
  {
    "country": "DE",
    "code": "04928",
    "name": "Schraden",
    "state": "Brandenburg",
    "stateAbbr": "BB",
    "lat": 51.4333,
    "lon": 13.7
  },
  {
    "country": "DE",
    "code": "04928",
    "name": "Kahla",
    "state": "Brandenburg",
    "stateAbbr": "BB",
    "lat": 51.4667,
    "lon": 13.5667
  },
  {
    "country": "DE",
    "code": "04931",
    "name": "Mühlberg (Elbe)",
    "state": "Brandenburg",
    "stateAbbr": "BB",
    "lat": 51.4333,
    "lon": 13.2167
  },
  {
    "country": "DE",
    "code": "04932",
    "name": "Gröden",
    "state": "Brandenburg",
    "stateAbbr": "BB",
    "lat": 51.4,
    "lon": 13.5667
  },
  {
    "country": "DE",
    "code": "04932",
    "name": "Wainsdorf",
    "state": "Brandenburg",
    "stateAbbr": "BB",
    "lat": 51.4167,
    "lon": 13.5
  },
  {
    "country": "DE",
    "code": "04932",
    "name": "Großthiemig",
    "state": "Brandenburg",
    "stateAbbr": "BB",
    "lat": 51.3833,
    "lon": 13.6667
  },
  {
    "country": "DE",
    "code": "04932",
    "name": "Hirschfeld",
    "state": "Brandenburg",
    "stateAbbr": "BB",
    "lat": 51.3833,
    "lon": 13.6167
  },
  {
    "country": "DE",
    "code": "04932",
    "name": "Reichenhain",
    "state": "Brandenburg",
    "stateAbbr": "BB",
    "lat": 51.45,
    "lon": 13.4333
  },
  {
    "country": "DE",
    "code": "04932",
    "name": "Prösen",
    "state": "Brandenburg",
    "stateAbbr": "BB",
    "lat": 51.4153,
    "lon": 13.5501
  },
  {
    "country": "DE",
    "code": "04932",
    "name": "Merzdorf",
    "state": "Brandenburg",
    "stateAbbr": "BB",
    "lat": 51.4,
    "lon": 13.5333
  },
  {
    "country": "DE",
    "code": "04932",
    "name": "Saathain",
    "state": "Brandenburg",
    "stateAbbr": "BB",
    "lat": 51.4667,
    "lon": 13.4667
  },
  {
    "country": "DE",
    "code": "04934",
    "name": "Dreska",
    "state": "Brandenburg",
    "stateAbbr": "BB",
    "lat": 51.4833,
    "lon": 13.5333
  },
  {
    "country": "DE",
    "code": "04934",
    "name": "Hohenleipisch",
    "state": "Brandenburg",
    "stateAbbr": "BB",
    "lat": 51.5,
    "lon": 13.55
  },
  {
    "country": "DE",
    "code": "04936",
    "name": "Schöna-Kolpien",
    "state": "Brandenburg",
    "stateAbbr": "BB",
    "lat": 51.825,
    "lon": 13.45
  },
  {
    "country": "DE",
    "code": "04936",
    "name": "Jagsal",
    "state": "Brandenburg",
    "stateAbbr": "BB",
    "lat": 51.6833,
    "lon": 13.35
  },
  {
    "country": "DE",
    "code": "04936",
    "name": "Malitschkendorf",
    "state": "Brandenburg",
    "stateAbbr": "BB",
    "lat": 51.7,
    "lon": 13.3333
  },
  {
    "country": "DE",
    "code": "04936",
    "name": "Freileben",
    "state": "Brandenburg",
    "stateAbbr": "BB",
    "lat": 51.7833,
    "lon": 13.4
  },
  {
    "country": "DE",
    "code": "04936",
    "name": "Lebusa",
    "state": "Brandenburg",
    "stateAbbr": "BB",
    "lat": 51.8,
    "lon": 13.4333
  },
  {
    "country": "DE",
    "code": "04936",
    "name": "Stechau",
    "state": "Brandenburg",
    "stateAbbr": "BB",
    "lat": 51.7,
    "lon": 13.4667
  },
  {
    "country": "DE",
    "code": "04936",
    "name": "Schlieben",
    "state": "Brandenburg",
    "stateAbbr": "BB",
    "lat": 51.7167,
    "lon": 13.3833
  },
  {
    "country": "DE",
    "code": "04936",
    "name": "Proßmarke",
    "state": "Brandenburg",
    "stateAbbr": "BB",
    "lat": 51.75,
    "lon": 13.4833
  },
  {
    "country": "DE",
    "code": "04936",
    "name": "Naundorf",
    "state": "Brandenburg",
    "stateAbbr": "BB",
    "lat": 51.7333,
    "lon": 13.4333
  },
  {
    "country": "DE",
    "code": "04936",
    "name": "Körba",
    "state": "Brandenburg",
    "stateAbbr": "BB",
    "lat": 51.8,
    "lon": 13.3833
  },
  {
    "country": "DE",
    "code": "04936",
    "name": "Kolochau",
    "state": "Brandenburg",
    "stateAbbr": "BB",
    "lat": 51.7333,
    "lon": 13.3167
  },
  {
    "country": "DE",
    "code": "04936",
    "name": "Wehrhain",
    "state": "Brandenburg",
    "stateAbbr": "BB",
    "lat": 51.7167,
    "lon": 13.4167
  },
  {
    "country": "DE",
    "code": "04936",
    "name": "Ölsig",
    "state": "Brandenburg",
    "stateAbbr": "BB",
    "lat": 51.6833,
    "lon": 13.375
  },
  {
    "country": "DE",
    "code": "04936",
    "name": "Frankenhain",
    "state": "Brandenburg",
    "stateAbbr": "BB",
    "lat": 51.7,
    "lon": 13.4167
  },
  {
    "country": "DE",
    "code": "04936",
    "name": "Hohenbucko",
    "state": "Brandenburg",
    "stateAbbr": "BB",
    "lat": 51.7667,
    "lon": 13.4667
  },
  {
    "country": "DE",
    "code": "04936",
    "name": "Hillmersdorf",
    "state": "Brandenburg",
    "stateAbbr": "BB",
    "lat": 51.7167,
    "lon": 13.4833
  },
  {
    "country": "DE",
    "code": "04938",
    "name": "Uebigau-Wahrenbrück",
    "state": "Brandenburg",
    "stateAbbr": "BB",
    "lat": 51.5167,
    "lon": 13.3333
  },
  {
    "country": "DE",
    "code": "12529",
    "name": "Schönefeld",
    "state": "Brandenburg",
    "stateAbbr": "BB",
    "lat": 52.3879,
    "lon": 13.5047
  },
  {
    "country": "DE",
    "code": "12529",
    "name": "Berlin",
    "state": "Brandenburg",
    "stateAbbr": "BB",
    "lat": 52.5167,
    "lon": 13.4
  },
  {
    "country": "DE",
    "code": "13047",
    "name": "Reinickendorf",
    "state": "Brandenburg",
    "stateAbbr": "BB",
    "lat": 52.5667,
    "lon": 13.3333
  },
  {
    "country": "DE",
    "code": "14461",
    "name": "Potsdam",
    "state": "Brandenburg",
    "stateAbbr": "BB",
    "lat": 52.4,
    "lon": 13.0667
  },
  {
    "country": "DE",
    "code": "14467",
    "name": "Potsdam",
    "state": "Brandenburg",
    "stateAbbr": "BB",
    "lat": 52.403,
    "lon": 13.0626
  },
  {
    "country": "DE",
    "code": "14469",
    "name": "Potsdam",
    "state": "Brandenburg",
    "stateAbbr": "BB",
    "lat": 52.4091,
    "lon": 12.9899
  },
  {
    "country": "DE",
    "code": "14471",
    "name": "Potsdam",
    "state": "Brandenburg",
    "stateAbbr": "BB",
    "lat": 52.3744,
    "lon": 13.0102
  },
  {
    "country": "DE",
    "code": "14473",
    "name": "Potsdam",
    "state": "Brandenburg",
    "stateAbbr": "BB",
    "lat": 52.3908,
    "lon": 13.0645
  },
  {
    "country": "DE",
    "code": "14476",
    "name": "Golm",
    "state": "Brandenburg",
    "stateAbbr": "BB",
    "lat": 52.4,
    "lon": 12.9667
  },
  {
    "country": "DE",
    "code": "14476",
    "name": "Neu Fahrland",
    "state": "Brandenburg",
    "stateAbbr": "BB",
    "lat": 52.45,
    "lon": 13.05
  },
  {
    "country": "DE",
    "code": "14476",
    "name": "Seeburg",
    "state": "Brandenburg",
    "stateAbbr": "BB",
    "lat": 52.5167,
    "lon": 13.1167
  },
  {
    "country": "DE",
    "code": "14476",
    "name": "Fahrland",
    "state": "Brandenburg",
    "stateAbbr": "BB",
    "lat": 52.4667,
    "lon": 13.0167
  },
  {
    "country": "DE",
    "code": "14476",
    "name": "Marquardt",
    "state": "Brandenburg",
    "stateAbbr": "BB",
    "lat": 52.45,
    "lon": 12.9667
  },
  {
    "country": "DE",
    "code": "14476",
    "name": "Töplitz",
    "state": "Brandenburg",
    "stateAbbr": "BB",
    "lat": 52.4167,
    "lon": 12.7944
  },
  {
    "country": "DE",
    "code": "14476",
    "name": "Uetz-Paaren",
    "state": "Brandenburg",
    "stateAbbr": "BB",
    "lat": 52.4667,
    "lon": 12.9333
  },
  {
    "country": "DE",
    "code": "14476",
    "name": "Satzkorn",
    "state": "Brandenburg",
    "stateAbbr": "BB",
    "lat": 52.4667,
    "lon": 13
  },
  {
    "country": "DE",
    "code": "14476",
    "name": "Groß Glienicke",
    "state": "Brandenburg",
    "stateAbbr": "BB",
    "lat": 52.4667,
    "lon": 13.1167
  },
  {
    "country": "DE",
    "code": "14478",
    "name": "Potsdam",
    "state": "Brandenburg",
    "stateAbbr": "BB",
    "lat": 52.3725,
    "lon": 13.0914
  },
  {
    "country": "DE",
    "code": "14480",
    "name": "Potsdam",
    "state": "Brandenburg",
    "stateAbbr": "BB",
    "lat": 52.3689,
    "lon": 13.1273
  },
  {
    "country": "DE",
    "code": "14482",
    "name": "Potsdam",
    "state": "Brandenburg",
    "stateAbbr": "BB",
    "lat": 52.3871,
    "lon": 13.0993
  },
  {
    "country": "DE",
    "code": "14513",
    "name": "Teltow",
    "state": "Brandenburg",
    "stateAbbr": "BB",
    "lat": 52.3976,
    "lon": 13.2523
  },
  {
    "country": "DE",
    "code": "14532",
    "name": "Kleinmachnow",
    "state": "Brandenburg",
    "stateAbbr": "BB",
    "lat": 52.4,
    "lon": 13.2333
  },
  {
    "country": "DE",
    "code": "14532",
    "name": "Stahnsdorf",
    "state": "Brandenburg",
    "stateAbbr": "BB",
    "lat": 52.3585,
    "lon": 13.1918
  },
  {
    "country": "DE",
    "code": "14532",
    "name": "Philippsthal",
    "state": "Brandenburg",
    "stateAbbr": "BB",
    "lat": 52.3333,
    "lon": 13.1333
  },
  {
    "country": "DE",
    "code": "14532",
    "name": "Nudow",
    "state": "Brandenburg",
    "stateAbbr": "BB",
    "lat": 52.3333,
    "lon": 13.1667
  },
  {
    "country": "DE",
    "code": "14532",
    "name": "Fahlhorst",
    "state": "Brandenburg",
    "stateAbbr": "BB",
    "lat": 52.3,
    "lon": 13.1667
  },
  {
    "country": "DE",
    "code": "14542",
    "name": "Werder (Havel)",
    "state": "Brandenburg",
    "stateAbbr": "BB",
    "lat": 52.3687,
    "lon": 12.9188
  },
  {
    "country": "DE",
    "code": "14542",
    "name": "Kloster Lehnin",
    "state": "Brandenburg",
    "stateAbbr": "BB",
    "lat": 52.3271,
    "lon": 12.6625
  },
  {
    "country": "DE",
    "code": "14542",
    "name": "Schwielowsee",
    "state": "Brandenburg",
    "stateAbbr": "BB",
    "lat": 52.3389,
    "lon": 12.9722
  },
  {
    "country": "DE",
    "code": "14547",
    "name": "Stücken",
    "state": "Brandenburg",
    "stateAbbr": "BB",
    "lat": 52.25,
    "lon": 13.0833
  },
  {
    "country": "DE",
    "code": "14547",
    "name": "Beelitz",
    "state": "Brandenburg",
    "stateAbbr": "BB",
    "lat": 52.2333,
    "lon": 12.9667
  },
  {
    "country": "DE",
    "code": "14548",
    "name": "Schwielowsee",
    "state": "Brandenburg",
    "stateAbbr": "BB",
    "lat": 52.3389,
    "lon": 12.9722
  },
  {
    "country": "DE",
    "code": "14550",
    "name": "Derwitz",
    "state": "Brandenburg",
    "stateAbbr": "BB",
    "lat": 52.4,
    "lon": 12.8333
  },
  {
    "country": "DE",
    "code": "14550",
    "name": "Krielow",
    "state": "Brandenburg",
    "stateAbbr": "BB",
    "lat": 52.4167,
    "lon": 12.8
  },
  {
    "country": "DE",
    "code": "14550",
    "name": "Deetz",
    "state": "Brandenburg",
    "stateAbbr": "BB",
    "lat": 52.45,
    "lon": 12.7667
  },
  {
    "country": "DE",
    "code": "14550",
    "name": "Groß Kreutz",
    "state": "Brandenburg",
    "stateAbbr": "BB",
    "lat": 52.4,
    "lon": 12.7833
  },
  {
    "country": "DE",
    "code": "14550",
    "name": "Bochow",
    "state": "Brandenburg",
    "stateAbbr": "BB",
    "lat": 52.3833,
    "lon": 12.8
  },
  {
    "country": "DE",
    "code": "14550",
    "name": "Schmergow",
    "state": "Brandenburg",
    "stateAbbr": "BB",
    "lat": 52.45,
    "lon": 12.8167
  },
  {
    "country": "DE",
    "code": "14552",
    "name": "Fresdorf",
    "state": "Brandenburg",
    "stateAbbr": "BB",
    "lat": 52.2667,
    "lon": 13.0833
  },
  {
    "country": "DE",
    "code": "14552",
    "name": "Michendorf",
    "state": "Brandenburg",
    "stateAbbr": "BB",
    "lat": 52.3012,
    "lon": 13.0257
  },
  {
    "country": "DE",
    "code": "14552",
    "name": "Wildenbruch",
    "state": "Brandenburg",
    "stateAbbr": "BB",
    "lat": 52.2833,
    "lon": 13.0667
  },
  {
    "country": "DE",
    "code": "14552",
    "name": "Tremsdorf",
    "state": "Brandenburg",
    "stateAbbr": "BB",
    "lat": 52.2667,
    "lon": 13.1167
  },
  {
    "country": "DE",
    "code": "14552",
    "name": "Saarmund",
    "state": "Brandenburg",
    "stateAbbr": "BB",
    "lat": 52.3167,
    "lon": 13.1167
  },
  {
    "country": "DE",
    "code": "14554",
    "name": "Seddiner See",
    "state": "Brandenburg",
    "stateAbbr": "BB",
    "lat": 52.2722,
    "lon": 13.0167
  },
  {
    "country": "DE",
    "code": "14557",
    "name": "Langerwisch",
    "state": "Brandenburg",
    "stateAbbr": "BB",
    "lat": 52.3167,
    "lon": 13.0667
  },
  {
    "country": "DE",
    "code": "14557",
    "name": "Wilhelmshorst",
    "state": "Brandenburg",
    "stateAbbr": "BB",
    "lat": 52.3333,
    "lon": 13.0667
  },
  {
    "country": "DE",
    "code": "14558",
    "name": "Bergholz-Rehbrücke",
    "state": "Brandenburg",
    "stateAbbr": "BB",
    "lat": 52.35,
    "lon": 13.1
  },
  {
    "country": "DE",
    "code": "14612",
    "name": "Falkensee",
    "state": "Brandenburg",
    "stateAbbr": "BB",
    "lat": 52.5589,
    "lon": 13.107
  },
  {
    "country": "DE",
    "code": "14621",
    "name": "Schönwalde",
    "state": "Brandenburg",
    "stateAbbr": "BB",
    "lat": 52.6167,
    "lon": 13.1333
  },
  {
    "country": "DE",
    "code": "14624",
    "name": "Dallgow-Döberitz",
    "state": "Brandenburg",
    "stateAbbr": "BB",
    "lat": 52.5333,
    "lon": 13.05
  },
  {
    "country": "DE",
    "code": "14627",
    "name": "Elstal",
    "state": "Brandenburg",
    "stateAbbr": "BB",
    "lat": 52.5412,
    "lon": 12.99
  },
  {
    "country": "DE",
    "code": "14641",
    "name": "Pessin",
    "state": "Brandenburg",
    "stateAbbr": "BB",
    "lat": 52.65,
    "lon": 12.6667
  },
  {
    "country": "DE",
    "code": "14641",
    "name": "Etzin",
    "state": "Brandenburg",
    "stateAbbr": "BB",
    "lat": 52.5167,
    "lon": 12.85
  },
  {
    "country": "DE",
    "code": "14641",
    "name": "Tremmen",
    "state": "Brandenburg",
    "stateAbbr": "BB",
    "lat": 52.5333,
    "lon": 12.8167
  },
  {
    "country": "DE",
    "code": "14641",
    "name": "Markee",
    "state": "Brandenburg",
    "stateAbbr": "BB",
    "lat": 52.5833,
    "lon": 12.8667
  },
  {
    "country": "DE",
    "code": "14641",
    "name": "Zeestow",
    "state": "Brandenburg",
    "stateAbbr": "BB",
    "lat": 52.5667,
    "lon": 12.9667
  },
  {
    "country": "DE",
    "code": "14641",
    "name": "Falkenrehde",
    "state": "Brandenburg",
    "stateAbbr": "BB",
    "lat": 52.5,
    "lon": 12.9167
  },
  {
    "country": "DE",
    "code": "14641",
    "name": "Paaren im Glien",
    "state": "Brandenburg",
    "stateAbbr": "BB",
    "lat": 52.65,
    "lon": 12.9833
  },
  {
    "country": "DE",
    "code": "14641",
    "name": "Kienberg",
    "state": "Brandenburg",
    "stateAbbr": "BB",
    "lat": 52.6667,
    "lon": 12.9
  },
  {
    "country": "DE",
    "code": "14641",
    "name": "Pausin",
    "state": "Brandenburg",
    "stateAbbr": "BB",
    "lat": 52.6333,
    "lon": 13.0333
  },
  {
    "country": "DE",
    "code": "14641",
    "name": "Nauen",
    "state": "Brandenburg",
    "stateAbbr": "BB",
    "lat": 52.6,
    "lon": 12.8833
  },
  {
    "country": "DE",
    "code": "14641",
    "name": "Börnicke",
    "state": "Brandenburg",
    "stateAbbr": "BB",
    "lat": 52.6833,
    "lon": 12.95
  },
  {
    "country": "DE",
    "code": "14641",
    "name": "Bredow",
    "state": "Brandenburg",
    "stateAbbr": "BB",
    "lat": 52.5833,
    "lon": 12.9333
  },
  {
    "country": "DE",
    "code": "14641",
    "name": "Mühlenberge",
    "state": "Brandenburg",
    "stateAbbr": "BB",
    "lat": 52.6667,
    "lon": 12.6111
  },
  {
    "country": "DE",
    "code": "14641",
    "name": "Lietzow",
    "state": "Brandenburg",
    "stateAbbr": "BB",
    "lat": 52.6167,
    "lon": 12.8333
  },
  {
    "country": "DE",
    "code": "14641",
    "name": "Paulinenaue",
    "state": "Brandenburg",
    "stateAbbr": "BB",
    "lat": 52.6833,
    "lon": 12.7167
  },
  {
    "country": "DE",
    "code": "14641",
    "name": "Selbelang",
    "state": "Brandenburg",
    "stateAbbr": "BB",
    "lat": 52.6333,
    "lon": 12.7167
  },
  {
    "country": "DE",
    "code": "14641",
    "name": "Wachow",
    "state": "Brandenburg",
    "stateAbbr": "BB",
    "lat": 52.5333,
    "lon": 12.75
  },
  {
    "country": "DE",
    "code": "14641",
    "name": "Tietzow",
    "state": "Brandenburg",
    "stateAbbr": "BB",
    "lat": 52.7167,
    "lon": 12.9333
  },
  {
    "country": "DE",
    "code": "14641",
    "name": "Berge",
    "state": "Brandenburg",
    "stateAbbr": "BB",
    "lat": 52.6333,
    "lon": 12.8
  },
  {
    "country": "DE",
    "code": "14641",
    "name": "Retzow",
    "state": "Brandenburg",
    "stateAbbr": "BB",
    "lat": 52.6333,
    "lon": 12.7
  },
  {
    "country": "DE",
    "code": "14641",
    "name": "Perwenitz",
    "state": "Brandenburg",
    "stateAbbr": "BB",
    "lat": 52.65,
    "lon": 13.0167
  },
  {
    "country": "DE",
    "code": "14641",
    "name": "Bergerdamm",
    "state": "Brandenburg",
    "stateAbbr": "BB",
    "lat": 52.6667,
    "lon": 12.8
  },
  {
    "country": "DE",
    "code": "14641",
    "name": "Wustermark",
    "state": "Brandenburg",
    "stateAbbr": "BB",
    "lat": 52.5406,
    "lon": 12.9775
  },
  {
    "country": "DE",
    "code": "14641",
    "name": "Groß Behnitz",
    "state": "Brandenburg",
    "stateAbbr": "BB",
    "lat": 52.5833,
    "lon": 12.7333
  },
  {
    "country": "DE",
    "code": "14641",
    "name": "Brädikow",
    "state": "Brandenburg",
    "stateAbbr": "BB",
    "lat": 52.6833,
    "lon": 12.65
  },
  {
    "country": "DE",
    "code": "14641",
    "name": "Wansdorf",
    "state": "Brandenburg",
    "stateAbbr": "BB",
    "lat": 52.6333,
    "lon": 13.0833
  },
  {
    "country": "DE",
    "code": "14641",
    "name": "Klein Behnitz",
    "state": "Brandenburg",
    "stateAbbr": "BB",
    "lat": 52.5833,
    "lon": 12.7333
  },
  {
    "country": "DE",
    "code": "14641",
    "name": "Grünefeld",
    "state": "Brandenburg",
    "stateAbbr": "BB",
    "lat": 52.6833,
    "lon": 12.9667
  },
  {
    "country": "DE",
    "code": "14641",
    "name": "Ribbeck",
    "state": "Brandenburg",
    "stateAbbr": "BB",
    "lat": 52.6167,
    "lon": 12.7333
  },
  {
    "country": "DE",
    "code": "14656",
    "name": "Brieselang",
    "state": "Brandenburg",
    "stateAbbr": "BB",
    "lat": 52.5833,
    "lon": 13
  },
  {
    "country": "DE",
    "code": "14662",
    "name": "Mühlenberge",
    "state": "Brandenburg",
    "stateAbbr": "BB",
    "lat": 52.6667,
    "lon": 12.6111
  },
  {
    "country": "DE",
    "code": "14662",
    "name": "Friesack",
    "state": "Brandenburg",
    "stateAbbr": "BB",
    "lat": 52.7333,
    "lon": 12.5833
  },
  {
    "country": "DE",
    "code": "14662",
    "name": "Warsow",
    "state": "Brandenburg",
    "stateAbbr": "BB",
    "lat": 52.7167,
    "lon": 12.65
  },
  {
    "country": "DE",
    "code": "14662",
    "name": "Vietznitz",
    "state": "Brandenburg",
    "stateAbbr": "BB",
    "lat": 52.7333,
    "lon": 12.6333
  },
  {
    "country": "DE",
    "code": "14669",
    "name": "Zachow",
    "state": "Brandenburg",
    "stateAbbr": "BB",
    "lat": 52.4833,
    "lon": 12.7833
  },
  {
    "country": "DE",
    "code": "14669",
    "name": "Ketzin",
    "state": "Brandenburg",
    "stateAbbr": "BB",
    "lat": 52.4667,
    "lon": 12.85
  },
  {
    "country": "DE",
    "code": "14712",
    "name": "Rathenow",
    "state": "Brandenburg",
    "stateAbbr": "BB",
    "lat": 52.6092,
    "lon": 12.3442
  },
  {
    "country": "DE",
    "code": "14715",
    "name": "Stechow-Ferchesar",
    "state": "Brandenburg",
    "stateAbbr": "BB",
    "lat": 52.6478,
    "lon": 12.45
  },
  {
    "country": "DE",
    "code": "14715",
    "name": "Seeblick",
    "state": "Brandenburg",
    "stateAbbr": "BB",
    "lat": 52.6722,
    "lon": 12.3778
  },
  {
    "country": "DE",
    "code": "14715",
    "name": "Märkisch Luch Barnewitz",
    "state": "Brandenburg",
    "stateAbbr": "BB",
    "lat": 52.5667,
    "lon": 12.6167
  },
  {
    "country": "DE",
    "code": "14715",
    "name": "Märkisch Luch Buschow",
    "state": "Brandenburg",
    "stateAbbr": "BB",
    "lat": 52.5833,
    "lon": 12.6333
  },
  {
    "country": "DE",
    "code": "14715",
    "name": "Möthlitz",
    "state": "Brandenburg",
    "stateAbbr": "BB",
    "lat": 52.4833,
    "lon": 12.3833
  },
  {
    "country": "DE",
    "code": "14715",
    "name": "Schollene",
    "state": "Brandenburg",
    "stateAbbr": "BB",
    "lat": 52.6833,
    "lon": 12.2167
  },
  {
    "country": "DE",
    "code": "14715",
    "name": "Vieritz",
    "state": "Brandenburg",
    "stateAbbr": "BB",
    "lat": 52.5333,
    "lon": 12.2667
  },
  {
    "country": "DE",
    "code": "14715",
    "name": "Kriele",
    "state": "Brandenburg",
    "stateAbbr": "BB",
    "lat": 52.65,
    "lon": 12.55
  },
  {
    "country": "DE",
    "code": "14715",
    "name": "Mützlitz",
    "state": "Brandenburg",
    "stateAbbr": "BB",
    "lat": 52.55,
    "lon": 12.5167
  },
  {
    "country": "DE",
    "code": "14715",
    "name": "Märkisch Luch Garlitz",
    "state": "Brandenburg",
    "stateAbbr": "BB",
    "lat": 52.5667,
    "lon": 12.5667
  },
  {
    "country": "DE",
    "code": "14715",
    "name": "Bützer",
    "state": "Brandenburg",
    "stateAbbr": "BB",
    "lat": 52.5333,
    "lon": 12.3
  },
  {
    "country": "DE",
    "code": "14715",
    "name": "Großwudicke",
    "state": "Brandenburg",
    "stateAbbr": "BB",
    "lat": 52.6,
    "lon": 12.2333
  },
  {
    "country": "DE",
    "code": "14715",
    "name": "Nennhausen",
    "state": "Brandenburg",
    "stateAbbr": "BB",
    "lat": 52.6,
    "lon": 12.5
  },
  {
    "country": "DE",
    "code": "14715",
    "name": "Märkisch Luch Möthlow",
    "state": "Brandenburg",
    "stateAbbr": "BB",
    "lat": 52.6,
    "lon": 12.65
  },
  {
    "country": "DE",
    "code": "14715",
    "name": "Bamme",
    "state": "Brandenburg",
    "stateAbbr": "BB",
    "lat": 52.5833,
    "lon": 12.4333
  },
  {
    "country": "DE",
    "code": "14715",
    "name": "Kotzen",
    "state": "Brandenburg",
    "stateAbbr": "BB",
    "lat": 52.6333,
    "lon": 12.5167
  },
  {
    "country": "DE",
    "code": "14715",
    "name": "Märkisch Luch",
    "state": "Brandenburg",
    "stateAbbr": "BB",
    "lat": 52.5875,
    "lon": 12.6167
  },
  {
    "country": "DE",
    "code": "14715",
    "name": "Jerchel",
    "state": "Brandenburg",
    "stateAbbr": "BB",
    "lat": 52.4833,
    "lon": 12.35
  },
  {
    "country": "DE",
    "code": "14715",
    "name": "Nitzahn",
    "state": "Brandenburg",
    "stateAbbr": "BB",
    "lat": 52.4667,
    "lon": 12.3667
  },
  {
    "country": "DE",
    "code": "14715",
    "name": "Gräningen",
    "state": "Brandenburg",
    "stateAbbr": "BB",
    "lat": 52.5833,
    "lon": 12.4667
  },
  {
    "country": "DE",
    "code": "14715",
    "name": "Havelaue",
    "state": "Brandenburg",
    "stateAbbr": "BB",
    "lat": 52.7167,
    "lon": 12.2567
  },
  {
    "country": "DE",
    "code": "14715",
    "name": "Landin",
    "state": "Brandenburg",
    "stateAbbr": "BB",
    "lat": 52.6667,
    "lon": 12.55
  },
  {
    "country": "DE",
    "code": "14715",
    "name": "Milow",
    "state": "Brandenburg",
    "stateAbbr": "BB",
    "lat": 52.5333,
    "lon": 12.3167
  },
  {
    "country": "DE",
    "code": "14715",
    "name": "Zollchow",
    "state": "Brandenburg",
    "stateAbbr": "BB",
    "lat": 52.5333,
    "lon": 12.2167
  },
  {
    "country": "DE",
    "code": "14715",
    "name": "Liepe",
    "state": "Brandenburg",
    "stateAbbr": "BB",
    "lat": 52.6167,
    "lon": 12.6
  },
  {
    "country": "DE",
    "code": "14727",
    "name": "Döberitz",
    "state": "Brandenburg",
    "stateAbbr": "BB",
    "lat": 52.5167,
    "lon": 12.35
  },
  {
    "country": "DE",
    "code": "14727",
    "name": "Premnitz",
    "state": "Brandenburg",
    "stateAbbr": "BB",
    "lat": 52.5333,
    "lon": 12.3333
  },
  {
    "country": "DE",
    "code": "14728",
    "name": "Gollenberg",
    "state": "Brandenburg",
    "stateAbbr": "BB",
    "lat": 52.745,
    "lon": 12.4
  },
  {
    "country": "DE",
    "code": "14728",
    "name": "Rhinow",
    "state": "Brandenburg",
    "stateAbbr": "BB",
    "lat": 52.75,
    "lon": 12.3333
  },
  {
    "country": "DE",
    "code": "14728",
    "name": "Havelaue",
    "state": "Brandenburg",
    "stateAbbr": "BB",
    "lat": 52.7167,
    "lon": 12.2567
  },
  {
    "country": "DE",
    "code": "14728",
    "name": "Kleßen-Görne",
    "state": "Brandenburg",
    "stateAbbr": "BB",
    "lat": 52.7167,
    "lon": 12.5
  },
  {
    "country": "DE",
    "code": "14770",
    "name": "Brandenburg an der Havel",
    "state": "Brandenburg",
    "stateAbbr": "BB",
    "lat": 52.4189,
    "lon": 12.5228
  },
  {
    "country": "DE",
    "code": "14772",
    "name": "Brandenburg an der Havel",
    "state": "Brandenburg",
    "stateAbbr": "BB",
    "lat": 52.4358,
    "lon": 12.5297
  },
  {
    "country": "DE",
    "code": "14774",
    "name": "Brandenburg an der Havel",
    "state": "Brandenburg",
    "stateAbbr": "BB",
    "lat": 52.3864,
    "lon": 12.4144
  },
  {
    "country": "DE",
    "code": "14776",
    "name": "Brandenburg an der Havel",
    "state": "Brandenburg",
    "stateAbbr": "BB",
    "lat": 52.4043,
    "lon": 12.568
  },
  {
    "country": "DE",
    "code": "14778",
    "name": "Götz",
    "state": "Brandenburg",
    "stateAbbr": "BB",
    "lat": 52.4167,
    "lon": 12.7167
  },
  {
    "country": "DE",
    "code": "14778",
    "name": "Beetzseeheide",
    "state": "Brandenburg",
    "stateAbbr": "BB",
    "lat": 52.4917,
    "lon": 12.6125
  },
  {
    "country": "DE",
    "code": "14778",
    "name": "Wust",
    "state": "Brandenburg",
    "stateAbbr": "BB",
    "lat": 52.4167,
    "lon": 12.6167
  },
  {
    "country": "DE",
    "code": "14778",
    "name": "Schenkenberg",
    "state": "Brandenburg",
    "stateAbbr": "BB",
    "lat": 52.3833,
    "lon": 12.7167
  },
  {
    "country": "DE",
    "code": "14778",
    "name": "Golzow",
    "state": "Brandenburg",
    "stateAbbr": "BB",
    "lat": 52.2667,
    "lon": 12.6167
  },
  {
    "country": "DE",
    "code": "14778",
    "name": "Wenzlow",
    "state": "Brandenburg",
    "stateAbbr": "BB",
    "lat": 52.3,
    "lon": 12.45
  },
  {
    "country": "DE",
    "code": "14778",
    "name": "Päwesin",
    "state": "Brandenburg",
    "stateAbbr": "BB",
    "lat": 52.5167,
    "lon": 12.7167
  },
  {
    "country": "DE",
    "code": "14778",
    "name": "Wollin",
    "state": "Brandenburg",
    "stateAbbr": "BB",
    "lat": 52.2833,
    "lon": 12.4667
  },
  {
    "country": "DE",
    "code": "14778",
    "name": "Gollwitz",
    "state": "Brandenburg",
    "stateAbbr": "BB",
    "lat": 52.4167,
    "lon": 12.65
  },
  {
    "country": "DE",
    "code": "14778",
    "name": "Havelsee",
    "state": "Brandenburg",
    "stateAbbr": "BB",
    "lat": 52.4929,
    "lon": 12.4667
  },
  {
    "country": "DE",
    "code": "14778",
    "name": "Planetal",
    "state": "Brandenburg",
    "stateAbbr": "BB",
    "lat": 52.1167,
    "lon": 12.6767
  },
  {
    "country": "DE",
    "code": "14778",
    "name": "Beetzsee",
    "state": "Brandenburg",
    "stateAbbr": "BB",
    "lat": 52.4833,
    "lon": 12.5611
  },
  {
    "country": "DE",
    "code": "14778",
    "name": "Planebruch",
    "state": "Brandenburg",
    "stateAbbr": "BB",
    "lat": 52.2542,
    "lon": 12.6875
  },
  {
    "country": "DE",
    "code": "14778",
    "name": "Trechwitz",
    "state": "Brandenburg",
    "stateAbbr": "BB",
    "lat": 52.3667,
    "lon": 12.7167
  },
  {
    "country": "DE",
    "code": "14778",
    "name": "Roskow",
    "state": "Brandenburg",
    "stateAbbr": "BB",
    "lat": 52.4667,
    "lon": 12.7333
  },
  {
    "country": "DE",
    "code": "14778",
    "name": "Kloster Lehnin",
    "state": "Brandenburg",
    "stateAbbr": "BB",
    "lat": 52.3271,
    "lon": 12.6625
  },
  {
    "country": "DE",
    "code": "14778",
    "name": "Jeserig",
    "state": "Brandenburg",
    "stateAbbr": "BB",
    "lat": 52.0833,
    "lon": 12.4667
  },
  {
    "country": "DE",
    "code": "14789",
    "name": "Rosenau",
    "state": "Brandenburg",
    "stateAbbr": "BB",
    "lat": 52.3292,
    "lon": 12.3583
  },
  {
    "country": "DE",
    "code": "14789",
    "name": "Bensdorf",
    "state": "Brandenburg",
    "stateAbbr": "BB",
    "lat": 52.4167,
    "lon": 12.3333
  },
  {
    "country": "DE",
    "code": "14789",
    "name": "Wusterwitz",
    "state": "Brandenburg",
    "stateAbbr": "BB",
    "lat": 52.3833,
    "lon": 12.4
  },
  {
    "country": "DE",
    "code": "14793",
    "name": "Rottstock",
    "state": "Brandenburg",
    "stateAbbr": "BB",
    "lat": 52.2,
    "lon": 12.35
  },
  {
    "country": "DE",
    "code": "14793",
    "name": "Gräben",
    "state": "Brandenburg",
    "stateAbbr": "BB",
    "lat": 52.2333,
    "lon": 12.4333
  },
  {
    "country": "DE",
    "code": "14793",
    "name": "Buckautal",
    "state": "Brandenburg",
    "stateAbbr": "BB",
    "lat": 52.2333,
    "lon": 12.3222
  },
  {
    "country": "DE",
    "code": "14793",
    "name": "Ziesar",
    "state": "Brandenburg",
    "stateAbbr": "BB",
    "lat": 52.2405,
    "lon": 12.3471
  },
  {
    "country": "DE",
    "code": "14797",
    "name": "Kloster Lehnin",
    "state": "Brandenburg",
    "stateAbbr": "BB",
    "lat": 52.3271,
    "lon": 12.6625
  },
  {
    "country": "DE",
    "code": "14798",
    "name": "Havelsee",
    "state": "Brandenburg",
    "stateAbbr": "BB",
    "lat": 52.4929,
    "lon": 12.4667
  },
  {
    "country": "DE",
    "code": "14806",
    "name": "Planetal",
    "state": "Brandenburg",
    "stateAbbr": "BB",
    "lat": 52.1167,
    "lon": 12.6767
  },
  {
    "country": "DE",
    "code": "14806",
    "name": "Belzig",
    "state": "Brandenburg",
    "stateAbbr": "BB",
    "lat": 52.1333,
    "lon": 12.6
  },
  {
    "country": "DE",
    "code": "14806",
    "name": "Hagelberg",
    "state": "Brandenburg",
    "stateAbbr": "BB",
    "lat": 52.1333,
    "lon": 12.5167
  },
  {
    "country": "DE",
    "code": "14806",
    "name": "Schwanebeck",
    "state": "Brandenburg",
    "stateAbbr": "BB",
    "lat": 52.1833,
    "lon": 12.6167
  },
  {
    "country": "DE",
    "code": "14822",
    "name": "Borkheide",
    "state": "Brandenburg",
    "stateAbbr": "BB",
    "lat": 52.2167,
    "lon": 12.85
  },
  {
    "country": "DE",
    "code": "14822",
    "name": "Borkwalde",
    "state": "Brandenburg",
    "stateAbbr": "BB",
    "lat": 52.25,
    "lon": 12.8333
  },
  {
    "country": "DE",
    "code": "14822",
    "name": "Mühlenfließ",
    "state": "Brandenburg",
    "stateAbbr": "BB",
    "lat": 52.1194,
    "lon": 12.7917
  },
  {
    "country": "DE",
    "code": "14822",
    "name": "Brück",
    "state": "Brandenburg",
    "stateAbbr": "BB",
    "lat": 52.2,
    "lon": 12.7667
  },
  {
    "country": "DE",
    "code": "14822",
    "name": "Linthe",
    "state": "Brandenburg",
    "stateAbbr": "BB",
    "lat": 52.1975,
    "lon": 12.7851
  },
  {
    "country": "DE",
    "code": "14822",
    "name": "Planebruch",
    "state": "Brandenburg",
    "stateAbbr": "BB",
    "lat": 52.2542,
    "lon": 12.6875
  },
  {
    "country": "DE",
    "code": "14823",
    "name": "Mühlenfließ",
    "state": "Brandenburg",
    "stateAbbr": "BB",
    "lat": 52.1194,
    "lon": 12.7917
  },
  {
    "country": "DE",
    "code": "14823",
    "name": "Rabenstein/Fläming",
    "state": "Brandenburg",
    "stateAbbr": "BB",
    "lat": 52.0333,
    "lon": 12.6313
  },
  {
    "country": "DE",
    "code": "14823",
    "name": "Niemegk",
    "state": "Brandenburg",
    "stateAbbr": "BB",
    "lat": 52.0531,
    "lon": 12.6185
  },
  {
    "country": "DE",
    "code": "14827",
    "name": "Wiesenburg",
    "state": "Brandenburg",
    "stateAbbr": "BB",
    "lat": 52.1167,
    "lon": 12.45
  },
  {
    "country": "DE",
    "code": "14828",
    "name": "Görzke",
    "state": "Brandenburg",
    "stateAbbr": "BB",
    "lat": 52.1708,
    "lon": 12.3706
  },
  {
    "country": "DE",
    "code": "14913",
    "name": "Hohenseefeld",
    "state": "Brandenburg",
    "stateAbbr": "BB",
    "lat": 51.9,
    "lon": 13.3
  },
  {
    "country": "DE",
    "code": "14913",
    "name": "Wahlsdorf",
    "state": "Brandenburg",
    "stateAbbr": "BB",
    "lat": 51.95,
    "lon": 13.3333
  },
  {
    "country": "DE",
    "code": "14913",
    "name": "Herbersdorf",
    "state": "Brandenburg",
    "stateAbbr": "BB",
    "lat": 51.8667,
    "lon": 13.3
  },
  {
    "country": "DE",
    "code": "14913",
    "name": "Niedergörsdorf",
    "state": "Brandenburg",
    "stateAbbr": "BB",
    "lat": 51.9833,
    "lon": 13
  },
  {
    "country": "DE",
    "code": "14913",
    "name": "Nuthe-Urstromtal",
    "state": "Brandenburg",
    "stateAbbr": "BB",
    "lat": 52.1116,
    "lon": 13.2152
  },
  {
    "country": "DE",
    "code": "14913",
    "name": "Ihlow",
    "state": "Brandenburg",
    "stateAbbr": "BB",
    "lat": 51.8833,
    "lon": 13.3333
  },
  {
    "country": "DE",
    "code": "14913",
    "name": "Niederer Fläming",
    "state": "Brandenburg",
    "stateAbbr": "BB",
    "lat": 51.9025,
    "lon": 13.2092
  },
  {
    "country": "DE",
    "code": "14913",
    "name": "Niebendorf-Heinsdorf",
    "state": "Brandenburg",
    "stateAbbr": "BB",
    "lat": 51.9333,
    "lon": 13.3333
  },
  {
    "country": "DE",
    "code": "14913",
    "name": "Jüterbog",
    "state": "Brandenburg",
    "stateAbbr": "BB",
    "lat": 51.9801,
    "lon": 13.1013
  },
  {
    "country": "DE",
    "code": "14929",
    "name": "Treuenbrietzen",
    "state": "Brandenburg",
    "stateAbbr": "BB",
    "lat": 52.1,
    "lon": 12.8667
  },
  {
    "country": "DE",
    "code": "14943",
    "name": "Lüdersdorf",
    "state": "Brandenburg",
    "stateAbbr": "BB",
    "lat": 52.1833,
    "lon": 13.2833
  },
  {
    "country": "DE",
    "code": "14943",
    "name": "Lühsdorf",
    "state": "Brandenburg",
    "stateAbbr": "BB",
    "lat": 52.15,
    "lon": 12.9667
  },
  {
    "country": "DE",
    "code": "14943",
    "name": "Luckenwalde",
    "state": "Brandenburg",
    "stateAbbr": "BB",
    "lat": 52.0887,
    "lon": 13.1638
  },
  {
    "country": "DE",
    "code": "14947",
    "name": "Nuthe-Urstromtal",
    "state": "Brandenburg",
    "stateAbbr": "BB",
    "lat": 52.1116,
    "lon": 13.2152
  },
  {
    "country": "DE",
    "code": "14959",
    "name": "Trebbin",
    "state": "Brandenburg",
    "stateAbbr": "BB",
    "lat": 52.2167,
    "lon": 13.2
  },
  {
    "country": "DE",
    "code": "14959",
    "name": "Schönhagen",
    "state": "Brandenburg",
    "stateAbbr": "BB",
    "lat": 52.2167,
    "lon": 13.15
  },
  {
    "country": "DE",
    "code": "14974",
    "name": "Ludwigsfelde",
    "state": "Brandenburg",
    "stateAbbr": "BB",
    "lat": 52.3019,
    "lon": 13.2607
  },
  {
    "country": "DE",
    "code": "14974",
    "name": "Thyrow",
    "state": "Brandenburg",
    "stateAbbr": "BB",
    "lat": 52.25,
    "lon": 13.2333
  },
  {
    "country": "DE",
    "code": "14979",
    "name": "Großbeeren",
    "state": "Brandenburg",
    "stateAbbr": "BB",
    "lat": 52.3667,
    "lon": 13.3333
  },
  {
    "country": "DE",
    "code": "15230",
    "name": "Frankfurt (Oder)",
    "state": "Brandenburg",
    "stateAbbr": "BB",
    "lat": 52.3475,
    "lon": 14.5539
  },
  {
    "country": "DE",
    "code": "15232",
    "name": "Frankfurt (Oder)",
    "state": "Brandenburg",
    "stateAbbr": "BB",
    "lat": 52.3241,
    "lon": 14.5325
  },
  {
    "country": "DE",
    "code": "15234",
    "name": "Frankfurt (Oder)",
    "state": "Brandenburg",
    "stateAbbr": "BB",
    "lat": 52.3646,
    "lon": 14.5244
  },
  {
    "country": "DE",
    "code": "15236",
    "name": "Treplin",
    "state": "Brandenburg",
    "stateAbbr": "BB",
    "lat": 52.3914,
    "lon": 14.3979
  },
  {
    "country": "DE",
    "code": "15236",
    "name": "Jacobsdorf Sieversdorf",
    "state": "Brandenburg",
    "stateAbbr": "BB",
    "lat": 52.3833,
    "lon": 14.3667
  },
  {
    "country": "DE",
    "code": "15236",
    "name": "Jacobsdorf Petersdorf bei Briesen",
    "state": "Brandenburg",
    "stateAbbr": "BB",
    "lat": 52.3667,
    "lon": 14.35
  },
  {
    "country": "DE",
    "code": "15236",
    "name": "Jacobsdorf Jacobsdorf",
    "state": "Brandenburg",
    "stateAbbr": "BB",
    "lat": 52.3345,
    "lon": 14.4179
  },
  {
    "country": "DE",
    "code": "15236",
    "name": "Jacobsdorf",
    "state": "Brandenburg",
    "stateAbbr": "BB",
    "lat": 52.3542,
    "lon": 14.3667
  },
  {
    "country": "DE",
    "code": "15236",
    "name": "Frankfurt (Oder)",
    "state": "Brandenburg",
    "stateAbbr": "BB",
    "lat": 52.35,
    "lon": 14.55
  },
  {
    "country": "DE",
    "code": "15236",
    "name": "Jacobsdorf Pillgram",
    "state": "Brandenburg",
    "stateAbbr": "BB",
    "lat": 52.3333,
    "lon": 14.4
  },
  {
    "country": "DE",
    "code": "15295",
    "name": "Groß Lindow",
    "state": "Brandenburg",
    "stateAbbr": "BB",
    "lat": 52.2333,
    "lon": 14.5333
  },
  {
    "country": "DE",
    "code": "15295",
    "name": "Groß Lindow Weißenspring",
    "state": "Brandenburg",
    "stateAbbr": "BB",
    "lat": 52.2333,
    "lon": 14.5167
  },
  {
    "country": "DE",
    "code": "15295",
    "name": "Ziltendorf Ernst-Thälmann-Siedlung",
    "state": "Brandenburg",
    "stateAbbr": "BB",
    "lat": 52.2333,
    "lon": 14.6333
  },
  {
    "country": "DE",
    "code": "15295",
    "name": "Wiesenau",
    "state": "Brandenburg",
    "stateAbbr": "BB",
    "lat": 52.2333,
    "lon": 14.6
  },
  {
    "country": "DE",
    "code": "15295",
    "name": "Ziltendorf Aurith",
    "state": "Brandenburg",
    "stateAbbr": "BB",
    "lat": 52.25,
    "lon": 14.6833
  },
  {
    "country": "DE",
    "code": "15295",
    "name": "Brieskow-Finkenheerd",
    "state": "Brandenburg",
    "stateAbbr": "BB",
    "lat": 52.2667,
    "lon": 14.5833
  },
  {
    "country": "DE",
    "code": "15295",
    "name": "Groß Lindow Schlaubehammer",
    "state": "Brandenburg",
    "stateAbbr": "BB",
    "lat": 52.25,
    "lon": 14.4833
  },
  {
    "country": "DE",
    "code": "15295",
    "name": "Ziltendorf",
    "state": "Brandenburg",
    "stateAbbr": "BB",
    "lat": 52.2167,
    "lon": 14.65
  },
  {
    "country": "DE",
    "code": "15299",
    "name": "Mixdorf",
    "state": "Brandenburg",
    "stateAbbr": "BB",
    "lat": 52.2,
    "lon": 14.4
  },
  {
    "country": "DE",
    "code": "15299",
    "name": "Grunow-Dammendorf Grunow",
    "state": "Brandenburg",
    "stateAbbr": "BB",
    "lat": 52.15,
    "lon": 14.4
  },
  {
    "country": "DE",
    "code": "15299",
    "name": "Grunow-Dammendorf",
    "state": "Brandenburg",
    "stateAbbr": "BB",
    "lat": 52.15,
    "lon": 14.4083
  },
  {
    "country": "DE",
    "code": "15299",
    "name": "Müllrose",
    "state": "Brandenburg",
    "stateAbbr": "BB",
    "lat": 52.25,
    "lon": 14.4167
  },
  {
    "country": "DE",
    "code": "15299",
    "name": "Dammendorf",
    "state": "Brandenburg",
    "stateAbbr": "BB",
    "lat": 52.15,
    "lon": 14.4167
  },
  {
    "country": "DE",
    "code": "15306",
    "name": "Werbig",
    "state": "Brandenburg",
    "stateAbbr": "BB",
    "lat": 52.5667,
    "lon": 14.3833
  },
  {
    "country": "DE",
    "code": "15306",
    "name": "Vierlinden Görlsdorf",
    "state": "Brandenburg",
    "stateAbbr": "BB",
    "lat": 52.5299,
    "lon": 14.3107
  },
  {
    "country": "DE",
    "code": "15306",
    "name": "Seelow",
    "state": "Brandenburg",
    "stateAbbr": "BB",
    "lat": 52.5338,
    "lon": 14.3811
  },
  {
    "country": "DE",
    "code": "15306",
    "name": "Lindendorf Dolgelin",
    "state": "Brandenburg",
    "stateAbbr": "BB",
    "lat": 52.4955,
    "lon": 14.4071
  },
  {
    "country": "DE",
    "code": "15306",
    "name": "Vierlinden Alt Rosenthal",
    "state": "Brandenburg",
    "stateAbbr": "BB",
    "lat": 52.5471,
    "lon": 14.277
  },
  {
    "country": "DE",
    "code": "15306",
    "name": "Fichtenhöhe Niederjesar",
    "state": "Brandenburg",
    "stateAbbr": "BB",
    "lat": 52.4449,
    "lon": 14.4324
  },
  {
    "country": "DE",
    "code": "15306",
    "name": "Vierlinden Friedersdorf",
    "state": "Brandenburg",
    "stateAbbr": "BB",
    "lat": 52.5102,
    "lon": 14.3987
  },
  {
    "country": "DE",
    "code": "15306",
    "name": "Lietzen",
    "state": "Brandenburg",
    "stateAbbr": "BB",
    "lat": 52.4677,
    "lon": 14.3455
  },
  {
    "country": "DE",
    "code": "15306",
    "name": "Fichtenhöhe",
    "state": "Brandenburg",
    "stateAbbr": "BB",
    "lat": 52.4556,
    "lon": 14.4469
  },
  {
    "country": "DE",
    "code": "15306",
    "name": "Vierlinden",
    "state": "Brandenburg",
    "stateAbbr": "BB",
    "lat": 52.515,
    "lon": 14.3141
  },
  {
    "country": "DE",
    "code": "15306",
    "name": "Vierlinden Marxdorf",
    "state": "Brandenburg",
    "stateAbbr": "BB",
    "lat": 52.483,
    "lon": 14.28
  },
  {
    "country": "DE",
    "code": "15306",
    "name": "Vierlinden Diedersdorf",
    "state": "Brandenburg",
    "stateAbbr": "BB",
    "lat": 52.5121,
    "lon": 14.3311
  },
  {
    "country": "DE",
    "code": "15306",
    "name": "Lindendorf Libbenichen",
    "state": "Brandenburg",
    "stateAbbr": "BB",
    "lat": 52.4775,
    "lon": 14.4367
  },
  {
    "country": "DE",
    "code": "15306",
    "name": "Vierlinden Neuentempel",
    "state": "Brandenburg",
    "stateAbbr": "BB",
    "lat": 52.502,
    "lon": 14.3265
  },
  {
    "country": "DE",
    "code": "15306",
    "name": "Gusow-Platkow Platkow",
    "state": "Brandenburg",
    "stateAbbr": "BB",
    "lat": 52.5835,
    "lon": 14.3244
  },
  {
    "country": "DE",
    "code": "15306",
    "name": "Falkenhagen",
    "state": "Brandenburg",
    "stateAbbr": "BB",
    "lat": 52.4291,
    "lon": 14.3209
  },
  {
    "country": "DE",
    "code": "15306",
    "name": "Lindendorf",
    "state": "Brandenburg",
    "stateAbbr": "BB",
    "lat": 52.4899,
    "lon": 14.4285
  },
  {
    "country": "DE",
    "code": "15306",
    "name": "Fichtenhöhe Alt Mahlisch",
    "state": "Brandenburg",
    "stateAbbr": "BB",
    "lat": 52.4641,
    "lon": 14.4209
  },
  {
    "country": "DE",
    "code": "15306",
    "name": "Gusow-Platkow Gusow",
    "state": "Brandenburg",
    "stateAbbr": "BB",
    "lat": 52.5719,
    "lon": 14.3556
  },
  {
    "country": "DE",
    "code": "15306",
    "name": "Lindendorf Neu Mahlisch",
    "state": "Brandenburg",
    "stateAbbr": "BB",
    "lat": 52.4802,
    "lon": 14.3898
  },
  {
    "country": "DE",
    "code": "15306",
    "name": "Vierlinden Worin",
    "state": "Brandenburg",
    "stateAbbr": "BB",
    "lat": 52.5206,
    "lon": 14.2749
  },
  {
    "country": "DE",
    "code": "15306",
    "name": "Gusow-Platkow",
    "state": "Brandenburg",
    "stateAbbr": "BB",
    "lat": 52.5777,
    "lon": 14.34
  },
  {
    "country": "DE",
    "code": "15306",
    "name": "Lindendorf Sachsendorf",
    "state": "Brandenburg",
    "stateAbbr": "BB",
    "lat": 52.5063,
    "lon": 14.4804
  },
  {
    "country": "DE",
    "code": "15320",
    "name": "Neutrebbin Altbarnim",
    "state": "Brandenburg",
    "stateAbbr": "BB",
    "lat": 52.6857,
    "lon": 14.2808
  },
  {
    "country": "DE",
    "code": "15320",
    "name": "Neuhardenberg",
    "state": "Brandenburg",
    "stateAbbr": "BB",
    "lat": 52.6028,
    "lon": 14.2389
  },
  {
    "country": "DE",
    "code": "15320",
    "name": "Neuhardenberg Altfriedland",
    "state": "Brandenburg",
    "stateAbbr": "BB",
    "lat": 52.6274,
    "lon": 14.2135
  },
  {
    "country": "DE",
    "code": "15320",
    "name": "Sietzing",
    "state": "Brandenburg",
    "stateAbbr": "BB",
    "lat": 52.65,
    "lon": 14.2833
  },
  {
    "country": "DE",
    "code": "15320",
    "name": "Neuhardenberg Neuhardenberg",
    "state": "Brandenburg",
    "stateAbbr": "BB",
    "lat": 52.5955,
    "lon": 14.2402
  },
  {
    "country": "DE",
    "code": "15320",
    "name": "Neuhardenberg Wulkow bei Trebnitz",
    "state": "Brandenburg",
    "stateAbbr": "BB",
    "lat": 52.5697,
    "lon": 14.2351
  },
  {
    "country": "DE",
    "code": "15320",
    "name": "Neutrebbin Neutrebbin",
    "state": "Brandenburg",
    "stateAbbr": "BB",
    "lat": 52.6667,
    "lon": 14.2333
  },
  {
    "country": "DE",
    "code": "15320",
    "name": "Neutrebbin Alttrebbin",
    "state": "Brandenburg",
    "stateAbbr": "BB",
    "lat": 52.6908,
    "lon": 14.2481
  },
  {
    "country": "DE",
    "code": "15320",
    "name": "Neuhardenberg Quappendorf",
    "state": "Brandenburg",
    "stateAbbr": "BB",
    "lat": 52.6186,
    "lon": 14.2669
  },
  {
    "country": "DE",
    "code": "15320",
    "name": "Neutrebbin",
    "state": "Brandenburg",
    "stateAbbr": "BB",
    "lat": 52.6811,
    "lon": 14.2541
  },
  {
    "country": "DE",
    "code": "15324",
    "name": "Letschin",
    "state": "Brandenburg",
    "stateAbbr": "BB",
    "lat": 52.6333,
    "lon": 14.3667
  },
  {
    "country": "DE",
    "code": "15324",
    "name": "Groß Neuendorf",
    "state": "Brandenburg",
    "stateAbbr": "BB",
    "lat": 52.7,
    "lon": 14.4167
  },
  {
    "country": "DE",
    "code": "15324",
    "name": "Ortwig",
    "state": "Brandenburg",
    "stateAbbr": "BB",
    "lat": 52.7,
    "lon": 14.35
  },
  {
    "country": "DE",
    "code": "15324",
    "name": "Gieshof-Zelliner Loose",
    "state": "Brandenburg",
    "stateAbbr": "BB",
    "lat": 52.7333,
    "lon": 14.3333
  },
  {
    "country": "DE",
    "code": "15324",
    "name": "Neubarnim",
    "state": "Brandenburg",
    "stateAbbr": "BB",
    "lat": 52.7,
    "lon": 14.3
  },
  {
    "country": "DE",
    "code": "15324",
    "name": "Kiehnwerder",
    "state": "Brandenburg",
    "stateAbbr": "BB",
    "lat": 52.6333,
    "lon": 14.3
  },
  {
    "country": "DE",
    "code": "15324",
    "name": "Kienitz",
    "state": "Brandenburg",
    "stateAbbr": "BB",
    "lat": 52.6667,
    "lon": 14.4333
  },
  {
    "country": "DE",
    "code": "15326",
    "name": "Lebus",
    "state": "Brandenburg",
    "stateAbbr": "BB",
    "lat": 52.4257,
    "lon": 14.4926
  },
  {
    "country": "DE",
    "code": "15326",
    "name": "Fichtenhöhe Carzig",
    "state": "Brandenburg",
    "stateAbbr": "BB",
    "lat": 52.4579,
    "lon": 14.4875
  },
  {
    "country": "DE",
    "code": "15326",
    "name": "Lebus Schönfließ",
    "state": "Brandenburg",
    "stateAbbr": "BB",
    "lat": 52.4212,
    "lon": 14.4735
  },
  {
    "country": "DE",
    "code": "15326",
    "name": "Lebus Lebus",
    "state": "Brandenburg",
    "stateAbbr": "BB",
    "lat": 52.4236,
    "lon": 14.533
  },
  {
    "country": "DE",
    "code": "15326",
    "name": "Zeschdorf Petershagen",
    "state": "Brandenburg",
    "stateAbbr": "BB",
    "lat": 52.3978,
    "lon": 14.3425
  },
  {
    "country": "DE",
    "code": "15326",
    "name": "Fichtenhöhe",
    "state": "Brandenburg",
    "stateAbbr": "BB",
    "lat": 52.4556,
    "lon": 14.4469
  },
  {
    "country": "DE",
    "code": "15326",
    "name": "Lebus Mallnow",
    "state": "Brandenburg",
    "stateAbbr": "BB",
    "lat": 52.456,
    "lon": 14.4926
  },
  {
    "country": "DE",
    "code": "15326",
    "name": "Lebus Wulkow",
    "state": "Brandenburg",
    "stateAbbr": "BB",
    "lat": 52.4021,
    "lon": 14.4715
  },
  {
    "country": "DE",
    "code": "15326",
    "name": "Zeschdorf Döbberin",
    "state": "Brandenburg",
    "stateAbbr": "BB",
    "lat": 52.4414,
    "lon": 14.3736
  },
  {
    "country": "DE",
    "code": "15326",
    "name": "Podelzig",
    "state": "Brandenburg",
    "stateAbbr": "BB",
    "lat": 52.47,
    "lon": 14.539
  },
  {
    "country": "DE",
    "code": "15326",
    "name": "Zeschdorf",
    "state": "Brandenburg",
    "stateAbbr": "BB",
    "lat": 52.4213,
    "lon": 14.3875
  },
  {
    "country": "DE",
    "code": "15326",
    "name": "Zeschdorf Alt Zeschdorf",
    "state": "Brandenburg",
    "stateAbbr": "BB",
    "lat": 52.4248,
    "lon": 14.4465
  },
  {
    "country": "DE",
    "code": "15328",
    "name": "Alt Tucheband",
    "state": "Brandenburg",
    "stateAbbr": "BB",
    "lat": 52.5214,
    "lon": 14.5301
  },
  {
    "country": "DE",
    "code": "15328",
    "name": "Alt Tucheband Hathenow",
    "state": "Brandenburg",
    "stateAbbr": "BB",
    "lat": 52.5041,
    "lon": 14.5357
  },
  {
    "country": "DE",
    "code": "15328",
    "name": "Zechin",
    "state": "Brandenburg",
    "stateAbbr": "BB",
    "lat": 52.6043,
    "lon": 14.4569
  },
  {
    "country": "DE",
    "code": "15328",
    "name": "Küstriner Vorland Küstrin-Kietz",
    "state": "Brandenburg",
    "stateAbbr": "BB",
    "lat": 52.5668,
    "lon": 14.6105
  },
  {
    "country": "DE",
    "code": "15328",
    "name": "Alt Tucheband Ratstock",
    "state": "Brandenburg",
    "stateAbbr": "BB",
    "lat": 52.5215,
    "lon": 14.5412
  },
  {
    "country": "DE",
    "code": "15328",
    "name": "Bleyen-Genschmar Bleyen",
    "state": "Brandenburg",
    "stateAbbr": "BB",
    "lat": 52.588,
    "lon": 14.6105
  },
  {
    "country": "DE",
    "code": "15328",
    "name": "Küstriner Vorland Gorgast",
    "state": "Brandenburg",
    "stateAbbr": "BB",
    "lat": 52.5682,
    "lon": 14.5515
  },
  {
    "country": "DE",
    "code": "15328",
    "name": "Zechin Zechin",
    "state": "Brandenburg",
    "stateAbbr": "BB",
    "lat": 52.6124,
    "lon": 14.4579
  },
  {
    "country": "DE",
    "code": "15328",
    "name": "Zechin Friedrichsaue",
    "state": "Brandenburg",
    "stateAbbr": "BB",
    "lat": 52.5982,
    "lon": 14.4726
  },
  {
    "country": "DE",
    "code": "15328",
    "name": "Golzow",
    "state": "Brandenburg",
    "stateAbbr": "BB",
    "lat": 52.5747,
    "lon": 14.4949
  },
  {
    "country": "DE",
    "code": "15328",
    "name": "Bleyen-Genschmar",
    "state": "Brandenburg",
    "stateAbbr": "BB",
    "lat": 52.6017,
    "lon": 14.5646
  },
  {
    "country": "DE",
    "code": "15328",
    "name": "Zechin Buschdorf",
    "state": "Brandenburg",
    "stateAbbr": "BB",
    "lat": 52.6023,
    "lon": 14.4403
  },
  {
    "country": "DE",
    "code": "15328",
    "name": "Küstriner Vorland Manschnow",
    "state": "Brandenburg",
    "stateAbbr": "BB",
    "lat": 52.5521,
    "lon": 14.5564
  },
  {
    "country": "DE",
    "code": "15328",
    "name": "Bleyen-Genschmar Genschmar",
    "state": "Brandenburg",
    "stateAbbr": "BB",
    "lat": 52.6155,
    "lon": 14.5187
  },
  {
    "country": "DE",
    "code": "15328",
    "name": "Alt Tucheband Alt Tucheband",
    "state": "Brandenburg",
    "stateAbbr": "BB",
    "lat": 52.5386,
    "lon": 14.5134
  },
  {
    "country": "DE",
    "code": "15328",
    "name": "Reitwein",
    "state": "Brandenburg",
    "stateAbbr": "BB",
    "lat": 52.5014,
    "lon": 14.5831
  },
  {
    "country": "DE",
    "code": "15328",
    "name": "Küstriner Vorland",
    "state": "Brandenburg",
    "stateAbbr": "BB",
    "lat": 52.5624,
    "lon": 14.5728
  },
  {
    "country": "DE",
    "code": "15344",
    "name": "Strausberg",
    "state": "Brandenburg",
    "stateAbbr": "BB",
    "lat": 52.5578,
    "lon": 13.8757
  },
  {
    "country": "DE",
    "code": "15345",
    "name": "Rehfelde Zinndorf",
    "state": "Brandenburg",
    "stateAbbr": "BB",
    "lat": 52.5027,
    "lon": 13.9256
  },
  {
    "country": "DE",
    "code": "15345",
    "name": "Oberbarnim",
    "state": "Brandenburg",
    "stateAbbr": "BB",
    "lat": 52.5938,
    "lon": 14.0355
  },
  {
    "country": "DE",
    "code": "15345",
    "name": "Prötzel Prötzel",
    "state": "Brandenburg",
    "stateAbbr": "BB",
    "lat": 52.6391,
    "lon": 13.9895
  },
  {
    "country": "DE",
    "code": "15345",
    "name": "Reichenow-Möglin Reichenow",
    "state": "Brandenburg",
    "stateAbbr": "BB",
    "lat": 52.647,
    "lon": 14.0775
  },
  {
    "country": "DE",
    "code": "15345",
    "name": "Garzau-Garzin",
    "state": "Brandenburg",
    "stateAbbr": "BB",
    "lat": 52.5382,
    "lon": 13.9667
  },
  {
    "country": "DE",
    "code": "15345",
    "name": "Garzau-Garzin Garzau",
    "state": "Brandenburg",
    "stateAbbr": "BB",
    "lat": 52.5307,
    "lon": 13.9511
  },
  {
    "country": "DE",
    "code": "15345",
    "name": "Garzau-Garzin Garzin",
    "state": "Brandenburg",
    "stateAbbr": "BB",
    "lat": 52.5457,
    "lon": 13.9822
  },
  {
    "country": "DE",
    "code": "15345",
    "name": "Reichenow-Möglin",
    "state": "Brandenburg",
    "stateAbbr": "BB",
    "lat": 52.6562,
    "lon": 14.0937
  },
  {
    "country": "DE",
    "code": "15345",
    "name": "Rehfelde Rehfelde",
    "state": "Brandenburg",
    "stateAbbr": "BB",
    "lat": 52.5368,
    "lon": 13.9156
  },
  {
    "country": "DE",
    "code": "15345",
    "name": "Prötzel",
    "state": "Brandenburg",
    "stateAbbr": "BB",
    "lat": 52.6536,
    "lon": 14.0036
  },
  {
    "country": "DE",
    "code": "15345",
    "name": "Rehfelde Werder",
    "state": "Brandenburg",
    "stateAbbr": "BB",
    "lat": 52.5205,
    "lon": 13.9462
  },
  {
    "country": "DE",
    "code": "15345",
    "name": "Reichenow-Möglin Möglin",
    "state": "Brandenburg",
    "stateAbbr": "BB",
    "lat": 52.6653,
    "lon": 14.11
  },
  {
    "country": "DE",
    "code": "15345",
    "name": "Zinndorf",
    "state": "Brandenburg",
    "stateAbbr": "BB",
    "lat": 52.5,
    "lon": 13.9167
  },
  {
    "country": "DE",
    "code": "15345",
    "name": "Rehfelde",
    "state": "Brandenburg",
    "stateAbbr": "BB",
    "lat": 52.52,
    "lon": 13.9291
  },
  {
    "country": "DE",
    "code": "15345",
    "name": "Lichtenow",
    "state": "Brandenburg",
    "stateAbbr": "BB",
    "lat": 52.4833,
    "lon": 13.9
  },
  {
    "country": "DE",
    "code": "15345",
    "name": "Prötzel Prädikow",
    "state": "Brandenburg",
    "stateAbbr": "BB",
    "lat": 52.6159,
    "lon": 14.0177
  },
  {
    "country": "DE",
    "code": "15345",
    "name": "Oberbarnim Klosterdorf",
    "state": "Brandenburg",
    "stateAbbr": "BB",
    "lat": 52.5914,
    "lon": 13.9569
  },
  {
    "country": "DE",
    "code": "15345",
    "name": "Altlandsberg",
    "state": "Brandenburg",
    "stateAbbr": "BB",
    "lat": 52.5667,
    "lon": 13.7333
  },
  {
    "country": "DE",
    "code": "15345",
    "name": "Prötzel Harnekop",
    "state": "Brandenburg",
    "stateAbbr": "BB",
    "lat": 52.6844,
    "lon": 14.0137
  },
  {
    "country": "DE",
    "code": "15345",
    "name": "Prötzel Sternebeck",
    "state": "Brandenburg",
    "stateAbbr": "BB",
    "lat": 52.6748,
    "lon": 13.9937
  },
  {
    "country": "DE",
    "code": "15345",
    "name": "Petershagen-Eggersdorf",
    "state": "Brandenburg",
    "stateAbbr": "BB",
    "lat": 52.525,
    "lon": 13.8
  },
  {
    "country": "DE",
    "code": "15345",
    "name": "Werder",
    "state": "Brandenburg",
    "stateAbbr": "BB",
    "lat": 52.5167,
    "lon": 13.95
  },
  {
    "country": "DE",
    "code": "15366",
    "name": "Hönow",
    "state": "Brandenburg",
    "stateAbbr": "BB",
    "lat": 52.5436,
    "lon": 13.6446
  },
  {
    "country": "DE",
    "code": "15366",
    "name": "Münchehofe",
    "state": "Brandenburg",
    "stateAbbr": "BB",
    "lat": 52.55,
    "lon": 14.1333
  },
  {
    "country": "DE",
    "code": "15366",
    "name": "Neuenhagen bei Berlin",
    "state": "Brandenburg",
    "stateAbbr": "BB",
    "lat": 52.5333,
    "lon": 13.6833
  },
  {
    "country": "DE",
    "code": "15366",
    "name": "Dahlwitz-Hoppegarten",
    "state": "Brandenburg",
    "stateAbbr": "BB",
    "lat": 52.5167,
    "lon": 13.6667
  },
  {
    "country": "DE",
    "code": "15370",
    "name": "Petershagen-Eggersdorf",
    "state": "Brandenburg",
    "stateAbbr": "BB",
    "lat": 52.525,
    "lon": 13.8
  },
  {
    "country": "DE",
    "code": "15370",
    "name": "Fredersdorf-Vogelsdorf",
    "state": "Brandenburg",
    "stateAbbr": "BB",
    "lat": 52.5,
    "lon": 13.7333
  },
  {
    "country": "DE",
    "code": "15372",
    "name": "Müncheberg",
    "state": "Brandenburg",
    "stateAbbr": "BB",
    "lat": 52.5,
    "lon": 14.1333
  },
  {
    "country": "DE",
    "code": "15374",
    "name": "Müncheberg",
    "state": "Brandenburg",
    "stateAbbr": "BB",
    "lat": 52.5114,
    "lon": 14.1359
  },
  {
    "country": "DE",
    "code": "15377",
    "name": "Ihlow",
    "state": "Brandenburg",
    "stateAbbr": "BB",
    "lat": 52.6167,
    "lon": 14.0667
  },
  {
    "country": "DE",
    "code": "15377",
    "name": "Buckow",
    "state": "Brandenburg",
    "stateAbbr": "BB",
    "lat": 52.5655,
    "lon": 14.0791
  },
  {
    "country": "DE",
    "code": "15377",
    "name": "Oberbarnim Bollersdorf",
    "state": "Brandenburg",
    "stateAbbr": "BB",
    "lat": 52.5859,
    "lon": 14.0783
  },
  {
    "country": "DE",
    "code": "15377",
    "name": "Oberbarnim Grunow, Ernsthof",
    "state": "Brandenburg",
    "stateAbbr": "BB",
    "lat": 52.5996,
    "lon": 14.0261
  },
  {
    "country": "DE",
    "code": "15377",
    "name": "Märkische Höhe",
    "state": "Brandenburg",
    "stateAbbr": "BB",
    "lat": 52.6199,
    "lon": 14.1292
  },
  {
    "country": "DE",
    "code": "15377",
    "name": "Oberbarnim Grunow",
    "state": "Brandenburg",
    "stateAbbr": "BB",
    "lat": 52.6028,
    "lon": 14.032
  },
  {
    "country": "DE",
    "code": "15377",
    "name": "Oberbarnim Bollersdorf, Bollersdorf",
    "state": "Brandenburg",
    "stateAbbr": "BB",
    "lat": 52.5818,
    "lon": 14.0528
  },
  {
    "country": "DE",
    "code": "15377",
    "name": "Waldsieversdorf",
    "state": "Brandenburg",
    "stateAbbr": "BB",
    "lat": 52.5424,
    "lon": 14.0688
  },
  {
    "country": "DE",
    "code": "15377",
    "name": "Oberbarnim Grunow, Grunow",
    "state": "Brandenburg",
    "stateAbbr": "BB",
    "lat": 52.606,
    "lon": 14.0379
  },
  {
    "country": "DE",
    "code": "15377",
    "name": "Oberbarnim",
    "state": "Brandenburg",
    "stateAbbr": "BB",
    "lat": 52.5938,
    "lon": 14.0355
  },
  {
    "country": "DE",
    "code": "15377",
    "name": "Märkische Höhe Batzlow",
    "state": "Brandenburg",
    "stateAbbr": "BB",
    "lat": 52.6316,
    "lon": 14.125
  },
  {
    "country": "DE",
    "code": "15377",
    "name": "Märkische Höhe Ringenwalde",
    "state": "Brandenburg",
    "stateAbbr": "BB",
    "lat": 52.6173,
    "lon": 14.1459
  },
  {
    "country": "DE",
    "code": "15377",
    "name": "Märkische Höhe Reichenberg",
    "state": "Brandenburg",
    "stateAbbr": "BB",
    "lat": 52.6109,
    "lon": 14.1165
  },
  {
    "country": "DE",
    "code": "15377",
    "name": "Oberbarnim Bollersdorf, Pritzhagen",
    "state": "Brandenburg",
    "stateAbbr": "BB",
    "lat": 52.59,
    "lon": 14.1038
  },
  {
    "country": "DE",
    "code": "15378",
    "name": "Herzfelde",
    "state": "Brandenburg",
    "stateAbbr": "BB",
    "lat": 52.4667,
    "lon": 13.8667
  },
  {
    "country": "DE",
    "code": "15378",
    "name": "Hennickendorf",
    "state": "Brandenburg",
    "stateAbbr": "BB",
    "lat": 52.5,
    "lon": 13.85
  },
  {
    "country": "DE",
    "code": "15517",
    "name": "Fürstenwalde/Spree Fürstenwalde",
    "state": "Brandenburg",
    "stateAbbr": "BB",
    "lat": 52.3638,
    "lon": 14.0467
  },
  {
    "country": "DE",
    "code": "15517",
    "name": "Fürstenwalde/Spree",
    "state": "Brandenburg",
    "stateAbbr": "BB",
    "lat": 52.3833,
    "lon": 14.0583
  },
  {
    "country": "DE",
    "code": "15517",
    "name": "Fürstenwalde/Spree Trebus",
    "state": "Brandenburg",
    "stateAbbr": "BB",
    "lat": 52.4,
    "lon": 14.05
  },
  {
    "country": "DE",
    "code": "15518",
    "name": "Falkenberg",
    "state": "Brandenburg",
    "stateAbbr": "BB",
    "lat": 52.3811,
    "lon": 14.2389
  },
  {
    "country": "DE",
    "code": "15518",
    "name": "Langewahl",
    "state": "Brandenburg",
    "stateAbbr": "BB",
    "lat": 52.3333,
    "lon": 14.1
  },
  {
    "country": "DE",
    "code": "15518",
    "name": "Berkenbrück",
    "state": "Brandenburg",
    "stateAbbr": "BB",
    "lat": 52.35,
    "lon": 14.15
  },
  {
    "country": "DE",
    "code": "15518",
    "name": "Steinhöfel Jänickendorf",
    "state": "Brandenburg",
    "stateAbbr": "BB",
    "lat": 52.4333,
    "lon": 14.0167
  },
  {
    "country": "DE",
    "code": "15518",
    "name": "Rauen",
    "state": "Brandenburg",
    "stateAbbr": "BB",
    "lat": 52.3333,
    "lon": 14.0167
  },
  {
    "country": "DE",
    "code": "15518",
    "name": "Steinhöfel Steinhöfel",
    "state": "Brandenburg",
    "stateAbbr": "BB",
    "lat": 52.4,
    "lon": 14.1667
  },
  {
    "country": "DE",
    "code": "15518",
    "name": "Steinhöfel Gölsdorf",
    "state": "Brandenburg",
    "stateAbbr": "BB",
    "lat": 52.45,
    "lon": 14.1
  },
  {
    "country": "DE",
    "code": "15518",
    "name": "Steinhöfel Hasenfelde",
    "state": "Brandenburg",
    "stateAbbr": "BB",
    "lat": 52.4167,
    "lon": 14.2167
  },
  {
    "country": "DE",
    "code": "15518",
    "name": "Briesen (Mark)",
    "state": "Brandenburg",
    "stateAbbr": "BB",
    "lat": 52.325,
    "lon": 14.3
  },
  {
    "country": "DE",
    "code": "15518",
    "name": "Steinhöfel Tempelberg",
    "state": "Brandenburg",
    "stateAbbr": "BB",
    "lat": 52.45,
    "lon": 14.1667
  },
  {
    "country": "DE",
    "code": "15518",
    "name": "Madlitz-Wilmersdorf Alt Madlitz",
    "state": "Brandenburg",
    "stateAbbr": "BB",
    "lat": 52.3833,
    "lon": 14.2833
  },
  {
    "country": "DE",
    "code": "15518",
    "name": "Steinhöfel Schönfelde",
    "state": "Brandenburg",
    "stateAbbr": "BB",
    "lat": 52.4667,
    "lon": 14.05
  },
  {
    "country": "DE",
    "code": "15518",
    "name": "Steinhöfel",
    "state": "Brandenburg",
    "stateAbbr": "BB",
    "lat": 52.4264,
    "lon": 14.1375
  },
  {
    "country": "DE",
    "code": "15518",
    "name": "Steinhöfel Buchholz",
    "state": "Brandenburg",
    "stateAbbr": "BB",
    "lat": 52.4167,
    "lon": 14.1167
  },
  {
    "country": "DE",
    "code": "15518",
    "name": "Briesen (Mark) Biegen",
    "state": "Brandenburg",
    "stateAbbr": "BB",
    "lat": 52.3167,
    "lon": 14.3667
  },
  {
    "country": "DE",
    "code": "15518",
    "name": "Steinhöfel Demnitz",
    "state": "Brandenburg",
    "stateAbbr": "BB",
    "lat": 52.3833,
    "lon": 14.2
  },
  {
    "country": "DE",
    "code": "15518",
    "name": "Grünheide (Mark) Hangelsberg",
    "state": "Brandenburg",
    "stateAbbr": "BB",
    "lat": 52.3833,
    "lon": 13.9333
  },
  {
    "country": "DE",
    "code": "15518",
    "name": "Madlitz-Wilmersdorf Falkenberg",
    "state": "Brandenburg",
    "stateAbbr": "BB",
    "lat": 52.3811,
    "lon": 14.2389
  },
  {
    "country": "DE",
    "code": "15518",
    "name": "Madlitz-Wilmersdorf Wilmersdorf",
    "state": "Brandenburg",
    "stateAbbr": "BB",
    "lat": 52.4,
    "lon": 14.2667
  },
  {
    "country": "DE",
    "code": "15518",
    "name": "Steinhöfel Beerfelde",
    "state": "Brandenburg",
    "stateAbbr": "BB",
    "lat": 52.4333,
    "lon": 14.05
  },
  {
    "country": "DE",
    "code": "15518",
    "name": "Grünheide (Mark)",
    "state": "Brandenburg",
    "stateAbbr": "BB",
    "lat": 52.4111,
    "lon": 13.8889
  },
  {
    "country": "DE",
    "code": "15518",
    "name": "Briesen (Mark) Briesen (Mark)",
    "state": "Brandenburg",
    "stateAbbr": "BB",
    "lat": 52.3333,
    "lon": 14.2833
  },
  {
    "country": "DE",
    "code": "15518",
    "name": "Steinhöfel Heinersdorf",
    "state": "Brandenburg",
    "stateAbbr": "BB",
    "lat": 52.45,
    "lon": 14.2167
  },
  {
    "country": "DE",
    "code": "15518",
    "name": "Madlitz-Wilmersdorf",
    "state": "Brandenburg",
    "stateAbbr": "BB",
    "lat": 52.3881,
    "lon": 14.263
  },
  {
    "country": "DE",
    "code": "15518",
    "name": "Steinhöfel Arensdorf",
    "state": "Brandenburg",
    "stateAbbr": "BB",
    "lat": 52.4333,
    "lon": 14.25
  },
  {
    "country": "DE",
    "code": "15518",
    "name": "Steinhöfel Neuendorf im Sande",
    "state": "Brandenburg",
    "stateAbbr": "BB",
    "lat": 52.3833,
    "lon": 14.1
  },
  {
    "country": "DE",
    "code": "15526",
    "name": "Bad Saarow Neu Golm",
    "state": "Brandenburg",
    "stateAbbr": "BB",
    "lat": 52.3,
    "lon": 14.1
  },
  {
    "country": "DE",
    "code": "15526",
    "name": "Reichenwalde Reichenwalde",
    "state": "Brandenburg",
    "stateAbbr": "BB",
    "lat": 52.2667,
    "lon": 14
  },
  {
    "country": "DE",
    "code": "15526",
    "name": "Rietz-Neuendorf",
    "state": "Brandenburg",
    "stateAbbr": "BB",
    "lat": 52.2321,
    "lon": 14.1619
  },
  {
    "country": "DE",
    "code": "15526",
    "name": "Reichenwalde Dahmsdorf",
    "state": "Brandenburg",
    "stateAbbr": "BB",
    "lat": 52.2333,
    "lon": 13.9833
  },
  {
    "country": "DE",
    "code": "15526",
    "name": "Rietz-Neuendorf Alt Golm",
    "state": "Brandenburg",
    "stateAbbr": "BB",
    "lat": 52.3,
    "lon": 14.1167
  },
  {
    "country": "DE",
    "code": "15526",
    "name": "Reichenwalde Kolpin",
    "state": "Brandenburg",
    "stateAbbr": "BB",
    "lat": 52.2833,
    "lon": 13.9833
  },
  {
    "country": "DE",
    "code": "15526",
    "name": "Bad Saarow Petersdorf",
    "state": "Brandenburg",
    "stateAbbr": "BB",
    "lat": 52.3167,
    "lon": 14.0833
  },
  {
    "country": "DE",
    "code": "15526",
    "name": "Bad Saarow Bad Saarow",
    "state": "Brandenburg",
    "stateAbbr": "BB",
    "lat": 52.2833,
    "lon": 14.0667
  },
  {
    "country": "DE",
    "code": "15526",
    "name": "Bad Saarow",
    "state": "Brandenburg",
    "stateAbbr": "BB",
    "lat": 52.3,
    "lon": 14.0833
  },
  {
    "country": "DE",
    "code": "15526",
    "name": "Reichenwalde",
    "state": "Brandenburg",
    "stateAbbr": "BB",
    "lat": 52.2556,
    "lon": 13.9889
  },